% program   : RTKPOST ver.2.4.3 b34
% inp file  : C:\Users\vmangr\OneDrive - TUNI.fi\Data\Android\20230801\_Rover\NMND17420010S_2023-08-01_08-24-35\Converted_On_20230801_T1430\RINEXv3_04\NMND17420010S_2023-08-01_08-24-35.23O
% inp file  : C:\Users\vmangr\OneDrive - TUNI.fi\Data\Android\20230801\_Base\TAUN00FIN_R_20232130800_01H_01S_MO.rnx
% inp file  : C:\Users\vmangr\OneDrive - TUNI.fi\Data\Android\20230801\_Base\BRDC00IGS_R_20232130000_01D_MN.rnx
% obs start : 2023/08/01 08:14:54.0 GPST (week2273 202494.0s)
% obs end   : 2023/08/01 08:24:53.0 GPST (week2273 203093.0s)
% pos mode  : Kinematic
% freqs     : L1+2+3+4+5
% solution  : Combined
% elev mask : 15.0 deg
% dynamics  : off
% tidecorr  : off
% ionos opt : OFF
% tropo opt : OFF
% ephemeris : Broadcast
% navi sys  : GPS
% amb res   : Continuous
% val thres : 3.0
% antenna1  :                       ( 0.0000  0.0000  0.0000)
% antenna2  :                       ( 0.0000  0.0000  0.0000)
% ref pos   : 61.450092262   23.856868990   182.4820
%
% (lat/lon/height=WGS84/ellipsoidal,Q=1:fix,2:float,3:sbas,4:dgps,5:single,6:ppp,ns=# of satellites)
%  GPST                  latitude(deg) longitude(deg)  height(m)   Q  ns   sdn(m)   sde(m)   sdu(m)  sdne(m)  sdeu(m)  sdun(m) age(s)  ratio
2023/08/01 08:14:54.000   61.449224424   23.856272695   163.0402   1   9   0.0042   0.0024   0.0065  -0.0013  -0.0006   0.0031   0.00   12.3
2023/08/01 08:14:55.000   61.449224392   23.856272983   163.0425   1   9   0.0059   0.0033   0.0093  -0.0019  -0.0007   0.0044   0.00   11.4
2023/08/01 08:14:56.000   61.449224387   23.856271891   163.0236   1   8   0.0050   0.0024   0.0078  -0.0012  -0.0005   0.0046   0.00   14.7
2023/08/01 08:14:57.000   61.449224796   23.856269123   163.0172   1   8   0.0052   0.0024   0.0083  -0.0011   0.0012   0.0047   0.00   15.0
2023/08/01 08:14:58.000   61.449224372   23.856273001   163.0929   1   7   0.0051   0.0027   0.0089  -0.0005   0.0018   0.0050   0.00   11.4
2023/08/01 08:14:59.000   61.449223715   23.856272649   163.0397   1   8   0.0052   0.0026   0.0086  -0.0009   0.0015   0.0049   0.00   14.5
2023/08/01 08:15:00.000   61.449222306   23.856259118   163.6589   1   8   0.0069   0.0041   0.0118  -0.0008   0.0011   0.0069   0.00   16.0
2023/08/01 08:15:01.000   61.449227949   23.856264506   163.6945   1   8   0.0049   0.0025   0.0078  -0.0012   0.0001   0.0046   0.00    3.8
2023/08/01 08:15:02.000   61.449225436   23.856269132   163.7438   1   8   0.0049   0.0024   0.0078  -0.0009  -0.0008   0.0046   0.00    6.8
2023/08/01 08:15:03.000   61.449226278   23.856268527   163.7331   1   8   0.0049   0.0027   0.0078  -0.0011  -0.0004   0.0046   0.00    9.5
2023/08/01 08:15:04.000   61.449227425   23.856271735   163.7054   1   8   0.0049   0.0020   0.0078  -0.0015   0.0006   0.0046   0.00   12.2
2023/08/01 08:15:05.000   61.449224367   23.856273911   163.8284   1   8   0.0051   0.0008   0.0078  -0.0016   0.0013   0.0045   0.00   14.5
2023/08/01 08:15:06.000   61.449224412   23.856273204   163.7986   1   8   0.0048   0.0020   0.0078  -0.0016   0.0006   0.0047   0.00   17.1
2023/08/01 08:15:07.000   61.449224353   23.856274108   163.8147   1   8   0.0048   0.0019   0.0078  -0.0017   0.0008   0.0047   0.00   18.7
2023/08/01 08:15:08.000   61.449223111   23.856274244   163.8086   1   8   0.0049   0.0022   0.0078  -0.0011  -0.0005   0.0046   0.00   20.4
2023/08/01 08:15:09.000   61.449223241   23.856273885   163.8159   1   8   0.0050   0.0023   0.0078  -0.0008  -0.0010   0.0046   0.00   20.9
2023/08/01 08:15:10.000   61.449223201   23.856273821   163.8184   1   8   0.0050   0.0026   0.0078  -0.0010  -0.0009   0.0046   0.00   21.5
2023/08/01 08:15:11.000   61.449222916   23.856275076   163.8067   1   8   0.0050   0.0025   0.0078  -0.0009  -0.0008   0.0045   0.00   22.0
2023/08/01 08:15:12.000   61.449223638   23.856274927   163.8164   1   8   0.0050   0.0024   0.0078  -0.0011   0.0003   0.0046   0.00   22.8
2023/08/01 08:15:13.000   61.449222972   23.856274968   163.8180   1   8   0.0050   0.0027   0.0078  -0.0013  -0.0005   0.0046   0.00   23.2
2023/08/01 08:15:14.000   61.449223082   23.856275507   163.8117   1   8   0.0049   0.0024   0.0078  -0.0015   0.0004   0.0046   0.00   24.1
2023/08/01 08:15:15.000   61.449223148   23.856276170   163.8085   1   8   0.0050   0.0022   0.0078  -0.0008  -0.0008   0.0046   0.00   25.2
2023/08/01 08:15:16.000   61.449222927   23.856275744   163.8132   1   8   0.0050   0.0021   0.0078  -0.0010  -0.0003   0.0046   0.00   25.9
2023/08/01 08:15:17.000   61.449223014   23.856275866   163.8056   1   8   0.0049   0.0021   0.0078  -0.0013   0.0005   0.0046   0.00   26.5
2023/08/01 08:15:18.000   61.449223147   23.856276458   163.8013   1   8   0.0050   0.0017   0.0078  -0.0015   0.0011   0.0046   0.00   27.3
2023/08/01 08:15:19.000   61.449223105   23.856275617   163.8123   1   8   0.0051   0.0024   0.0078  -0.0015   0.0005   0.0046   0.00   27.5
2023/08/01 08:15:20.000   61.449223045   23.856275318   163.8122   1   8   0.0050   0.0024   0.0078  -0.0012  -0.0008   0.0046   0.00   27.9
2023/08/01 08:15:21.000   61.449223189   23.856275609   163.8060   1   8   0.0049   0.0021   0.0078  -0.0016   0.0008   0.0047   0.00   28.6
2023/08/01 08:15:22.000   61.449223085   23.856276169   163.8020   1   8   0.0051   0.0023   0.0078  -0.0013   0.0002   0.0045   0.00   29.1
2023/08/01 08:15:23.000   61.449223081   23.856276082   163.8060   1   8   0.0049   0.0026   0.0078  -0.0010  -0.0010   0.0046   0.00   29.8
2023/08/01 08:15:24.000   61.449222974   23.856275852   163.8049   1   8   0.0049   0.0024   0.0078  -0.0014   0.0008   0.0046   0.00   30.1
2023/08/01 08:15:25.000   61.449222984   23.856275968   163.8048   1   8   0.0049   0.0013   0.0077  -0.0016   0.0011   0.0047   0.00   30.5
2023/08/01 08:15:26.000   61.449223024   23.856275829   163.8054   1   8   0.0049   0.0022   0.0078  -0.0016   0.0011   0.0047   0.00   30.8
2023/08/01 08:15:27.000   61.449223062   23.856276118   163.8024   1   8   0.0051   0.0024   0.0078  -0.0008  -0.0007   0.0046   0.00   31.3
2023/08/01 08:15:28.000   61.449223104   23.856276172   163.7980   1   8   0.0049   0.0025   0.0078  -0.0011  -0.0005   0.0046   0.00   31.8
2023/08/01 08:15:29.000   61.449223149   23.856276231   163.8007   1   8   0.0049   0.0024   0.0078  -0.0015   0.0008   0.0046   0.00   32.0
2023/08/01 08:15:30.000   61.449223109   23.856276246   163.7980   1   8   0.0051   0.0022   0.0078  -0.0012   0.0005   0.0045   0.00   32.5
2023/08/01 08:15:31.000   61.449223094   23.856276223   163.7969   1   8   0.0050   0.0027   0.0078  -0.0013   0.0004   0.0046   0.00   33.0
2023/08/01 08:15:32.000   61.449223061   23.856276331   163.7967   1   8   0.0049   0.0018   0.0078  -0.0015   0.0007   0.0046   0.00   33.4
2023/08/01 08:15:33.000   61.449223079   23.856276274   163.8007   1   8   0.0050   0.0024   0.0078  -0.0012  -0.0008   0.0046   0.00   33.9
2023/08/01 08:15:34.000   61.449223139   23.856276200   163.7992   1   8   0.0050   0.0021   0.0078  -0.0014  -0.0002   0.0045   0.00   34.6
2023/08/01 08:15:35.000   61.449223124   23.856276195   163.7968   1   8   0.0049   0.0025   0.0078  -0.0009  -0.0010   0.0046   0.00   35.4
2023/08/01 08:15:36.000   61.449223103   23.856276217   163.8014   1   8   0.0047   0.0024   0.0077  -0.0012  -0.0007   0.0048   0.00   36.1
2023/08/01 08:15:37.000   61.449223149   23.856276291   163.8001   1   8   0.0050   0.0012   0.0078  -0.0018   0.0004   0.0046   0.00   36.9
2023/08/01 08:15:38.000   61.449223103   23.856276334   163.7966   1   8   0.0049   0.0022   0.0078  -0.0014  -0.0006   0.0047   0.00   37.8
2023/08/01 08:15:39.000   61.449223122   23.856276834   163.7961   1   8   0.0050   0.0023   0.0078  -0.0015  -0.0003   0.0046   0.00   38.5
2023/08/01 08:15:40.000   61.449223116   23.856276567   163.7981   1   8   0.0050   0.0022   0.0078  -0.0012  -0.0004   0.0046   0.00   39.0
2023/08/01 08:15:41.000   61.449224155   23.856276685   163.7960   1   8   0.0050   0.0025   0.0078  -0.0013  -0.0011   0.0046   0.00   39.4
2023/08/01 08:15:42.000   61.449223524   23.856276232   163.8109   1   8   0.0050   0.0023   0.0078  -0.0013   0.0006   0.0046   0.00   39.9
2023/08/01 08:15:43.000   61.449223757   23.856275760   163.8088   1   8   0.0049   0.0020   0.0078  -0.0017   0.0011   0.0046   0.00   40.1
2023/08/01 08:15:44.000   61.449223211   23.856275306   163.8059   1   8   0.0049   0.0018   0.0078  -0.0014   0.0008   0.0047   0.00   40.6
2023/08/01 08:15:45.000   61.449223242   23.856275172   163.8094   1   8   0.0050   0.0023   0.0078  -0.0015   0.0007   0.0046   0.00   41.3
2023/08/01 08:15:46.000   61.449223223   23.856275301   163.8075   1   8   0.0049   0.0021   0.0078  -0.0013   0.0007   0.0046   0.00   41.8
2023/08/01 08:15:47.000   61.449223144   23.856275465   163.8099   1   8   0.0051   0.0026   0.0078  -0.0005  -0.0009   0.0046   0.00   42.2
2023/08/01 08:15:48.000   61.449223038   23.856275851   163.8141   1   8   0.0049   0.0028   0.0078  -0.0009  -0.0007   0.0046   0.00   42.1
2023/08/01 08:15:49.000   61.449223002   23.856275648   163.8153   1   8   0.0050   0.0023   0.0078  -0.0012   0.0005   0.0046   0.00   41.9
2023/08/01 08:15:50.000   61.449223458   23.856276197   163.8176   1   8   0.0049   0.0021   0.0078  -0.0010  -0.0003   0.0047   0.00   41.8
2023/08/01 08:15:51.000   61.449223347   23.856274882   163.8180   1   8   0.0049   0.0022   0.0078  -0.0015  -0.0006   0.0046   0.00   42.1
2023/08/01 08:15:52.000   61.449223464   23.856275332   163.8101   1   8   0.0050   0.0023   0.0078  -0.0014   0.0006   0.0046   0.00   42.4
2023/08/01 08:15:53.000   61.449223368   23.856275457   163.8085   1   8   0.0051   0.0024   0.0078  -0.0009   0.0002   0.0045   0.00   42.5
2023/08/01 08:15:54.000   61.449223251   23.856275172   163.8047   1   8   0.0050   0.0024   0.0078  -0.0013  -0.0005   0.0046   0.00   43.0
2023/08/01 08:15:55.000   61.449223220   23.856275700   163.8007   1   8   0.0049   0.0022   0.0077  -0.0014  -0.0006   0.0047   0.00   43.3
2023/08/01 08:15:56.000   61.449223108   23.856276404   163.7969   1   8   0.0052   0.0027   0.0078  -0.0005  -0.0008   0.0045   0.00   43.4
2023/08/01 08:15:57.000   61.449222901   23.856276604   163.8007   1   8   0.0050   0.0021   0.0078  -0.0013  -0.0002   0.0046   0.00   43.5
2023/08/01 08:15:58.000   61.449222835   23.856276140   163.8009   1   8   0.0049   0.0028   0.0078  -0.0010  -0.0010   0.0046   0.00   43.5
2023/08/01 08:15:59.000   61.449222816   23.856276360   163.8036   1   8   0.0050   0.0021   0.0078  -0.0015   0.0002   0.0046   0.00   43.5
2023/08/01 08:16:00.000   61.449222915   23.856276461   163.8020   1   8   0.0049   0.0025   0.0078  -0.0011  -0.0010   0.0047   0.00   43.6
2023/08/01 08:16:01.000   61.449222923   23.856276460   163.8040   1   8   0.0049   0.0023   0.0078  -0.0012  -0.0005   0.0046   0.00   43.8
2023/08/01 08:16:02.000   61.449222984   23.856276479   163.8008   1   8   0.0048   0.0021   0.0078  -0.0016  -0.0005   0.0046   0.00   43.7
2023/08/01 08:16:03.000   61.449223024   23.856276619   163.7966   1   8   0.0050   0.0028   0.0078  -0.0006  -0.0011   0.0046   0.00   43.9
2023/08/01 08:16:04.000   61.449223105   23.856276269   163.8019   1   8   0.0049   0.0019   0.0078  -0.0016   0.0009   0.0047   0.00   43.9
2023/08/01 08:16:05.000   61.449223023   23.856276506   163.7970   1   8   0.0049   0.0026   0.0078  -0.0010  -0.0009   0.0046   0.00   44.1
2023/08/01 08:16:06.000   61.449222864   23.856276810   163.8021   1   8   0.0050   0.0028   0.0078  -0.0007  -0.0008   0.0045   0.00   44.4
2023/08/01 08:16:07.000   61.449222678   23.856276343   163.7948   1   8   0.0049   0.0024   0.0078  -0.0015  -0.0004   0.0047   0.00   44.7
2023/08/01 08:16:08.000   61.449222938   23.856276786   163.7935   1   8   0.0050   0.0026   0.0078  -0.0010  -0.0009   0.0046   0.00   45.1
2023/08/01 08:16:09.000   61.449227111   23.856276162   163.7728   1   8   0.0050   0.0022   0.0078  -0.0008  -0.0011   0.0045   0.00   45.1
2023/08/01 08:16:10.000   61.449235086   23.856280815   163.7773   1   8   0.0050   0.0027   0.0078   0.0001  -0.0012   0.0045   0.00   45.3
2023/08/01 08:16:11.000   61.449245187   23.856291769   163.8287   1   8   0.0052   0.0019   0.0078  -0.0015   0.0008   0.0045   0.00   45.2
2023/08/01 08:16:12.000   61.449254784   23.856307212   163.8465   1   8   0.0049   0.0024   0.0078  -0.0012  -0.0011   0.0046   0.00   45.4
2023/08/01 08:16:13.000   61.449263053   23.856327642   163.8045   1   8   0.0050   0.0023   0.0078  -0.0016   0.0003   0.0046   0.00   46.0
2023/08/01 08:16:14.000   61.449269892   23.856350676   163.8350   1   8   0.0050   0.0019   0.0078  -0.0017   0.0010   0.0046   0.00   46.5
2023/08/01 08:16:15.000   61.449276898   23.856372938   163.8109   1   8   0.0050   0.0029   0.0078  -0.0005  -0.0011   0.0045   0.00   47.2
2023/08/01 08:16:16.000   61.449283944   23.856395960   163.8418   1   8   0.0049   0.0024   0.0078  -0.0011  -0.0006   0.0046   0.00   48.1
2023/08/01 08:16:17.000   61.449290854   23.856419389   163.8379   1   8   0.0049   0.0022   0.0077  -0.0009  -0.0011   0.0047   0.00   48.5
2023/08/01 08:16:18.000   61.449298774   23.856440103   163.8503   1   8   0.0049   0.0026   0.0078  -0.0010  -0.0009   0.0046   0.00   49.2
2023/08/01 08:16:19.000   61.449306369   23.856459935   163.8645   1   8   0.0050   0.0020   0.0078  -0.0014   0.0005   0.0046   0.00   49.6
2023/08/01 08:16:20.000   61.449313232   23.856481743   163.8473   1   8   0.0051   0.0023   0.0078  -0.0014   0.0006   0.0046   0.00   49.9
2023/08/01 08:16:21.000   61.449320141   23.856501540   163.8182   1   8   0.0051   0.0024   0.0078  -0.0003  -0.0010   0.0046   0.00   50.3
2023/08/01 08:16:22.000   61.449328006   23.856523525   163.7554   1   8   0.0049   0.0024   0.0078  -0.0013  -0.0009   0.0047   0.00   50.3
2023/08/01 08:16:23.000   61.449334375   23.856547936   163.7265   1   8   0.0049   0.0023   0.0078  -0.0014   0.0003   0.0046   0.00   50.5
2023/08/01 08:16:24.000   61.449340443   23.856571592   163.6465   1   8   0.0049   0.0028   0.0078  -0.0007  -0.0012   0.0047   0.00   51.0
2023/08/01 08:16:25.000   61.449346614   23.856595464   163.6099   1   8   0.0050   0.0024   0.0078  -0.0014  -0.0003   0.0046   0.00   51.7
2023/08/01 08:16:26.000   61.449353373   23.856618807   163.5932   1   8   0.0051   0.0023   0.0078  -0.0011   0.0006   0.0046   0.00   52.2
2023/08/01 08:16:27.000   61.449360708   23.856640920   163.6036   1   8   0.0051   0.0028   0.0078  -0.0005  -0.0010   0.0045   0.00   53.4
2023/08/01 08:16:28.000   61.449367610   23.856664140   163.5864   1   8   0.0049   0.0025   0.0078  -0.0005  -0.0011   0.0046   0.00   54.1
2023/08/01 08:16:29.000   61.449374423   23.856687681   163.5629   1   8   0.0049   0.0024   0.0078  -0.0013  -0.0005   0.0047   0.00   55.1
2023/08/01 08:16:30.000   61.449380531   23.856711052   163.5710   1   8   0.0049   0.0024   0.0078  -0.0014   0.0002   0.0046   0.00   56.0
2023/08/01 08:16:31.000   61.449386072   23.856735288   163.5871   1   8   0.0050   0.0022   0.0078  -0.0011  -0.0005   0.0046   0.00   57.1
2023/08/01 08:16:32.000   61.449389244   23.856760314   163.6046   1   8   0.0051   0.0026   0.0078  -0.0012  -0.0004   0.0046   0.00   58.0
2023/08/01 08:16:33.000   61.449386701   23.856786245   163.5754   1   8   0.0050   0.0020   0.0078  -0.0013   0.0005   0.0046   0.00   59.1
2023/08/01 08:16:34.000   61.449380644   23.856808901   163.6246   1   8   0.0049   0.0023   0.0078  -0.0015  -0.0004   0.0046   0.00   60.0
2023/08/01 08:16:35.000   61.449373252   23.856831204   163.6386   1   8   0.0051   0.0025   0.0078  -0.0015   0.0006   0.0046   0.00   60.7
2023/08/01 08:16:36.000   61.449365399   23.856852643   163.6923   1   8   0.0049   0.0024   0.0078  -0.0015   0.0007   0.0046   0.00   61.7
2023/08/01 08:16:37.000   61.449357124   23.856873413   163.7553   1   8   0.0050   0.0024   0.0078  -0.0012  -0.0008   0.0045   0.00   61.8
2023/08/01 08:16:38.000   61.449350053   23.856895900   163.8331   1   8   0.0049   0.0022   0.0078  -0.0016   0.0008   0.0046   0.00   62.2
2023/08/01 08:16:39.000   61.449342364   23.856916834   163.9046   1   8   0.0050   0.0022   0.0078  -0.0015   0.0006   0.0046   0.00   62.4
2023/08/01 08:16:40.000   61.449334398   23.856937246   163.9240   1   8   0.0049   0.0022   0.0078  -0.0015   0.0007   0.0047   0.00   62.6
2023/08/01 08:16:41.000   61.449325915   23.856956860   163.9419   1   8   0.0047   0.0025   0.0078  -0.0015   0.0007   0.0047   0.00   62.6
2023/08/01 08:16:42.000   61.449317119   23.856976026   163.9470   1   8   0.0048   0.0026   0.0078  -0.0009  -0.0007   0.0047   0.00   62.4
2023/08/01 08:16:43.000   61.449308122   23.856995818   163.9472   1   8   0.0049   0.0024   0.0078  -0.0015   0.0010   0.0046   0.00   61.9
2023/08/01 08:16:44.000   61.449300059   23.857015427   164.0382   1   8   0.0051   0.0020   0.0078  -0.0014   0.0007   0.0046   0.00   61.7
2023/08/01 08:16:45.000   61.449290303   23.857033379   164.0897   1   8   0.0049   0.0023   0.0078  -0.0015   0.0006   0.0047   0.00   61.7
2023/08/01 08:16:46.000   61.449280813   23.857051531   164.1273   1   8   0.0051   0.0018   0.0077  -0.0014   0.0006   0.0046   0.00   61.3
2023/08/01 08:16:47.000   61.449271184   23.857067880   164.1930   1   8   0.0050   0.0023   0.0078  -0.0015   0.0007   0.0046   0.00   61.3
2023/08/01 08:16:48.000   61.449261720   23.857085139   164.2218   1   8   0.0048   0.0025   0.0078  -0.0014   0.0002   0.0047   0.00   61.3
2023/08/01 08:16:49.000   61.449254509   23.857105955   164.3064   1   8   0.0049   0.0024   0.0078  -0.0013  -0.0006   0.0046   0.00   61.2
2023/08/01 08:16:50.000   61.449247383   23.857127820   164.2893   1   8   0.0049   0.0025   0.0078  -0.0014  -0.0005   0.0046   0.00   61.3
2023/08/01 08:16:51.000   61.449241378   23.857152242   164.1785   1   8   0.0051   0.0022   0.0078  -0.0013  -0.0006   0.0046   0.00   61.2
2023/08/01 08:16:52.000   61.449235980   23.857179136   164.1880   1   8   0.0050   0.0024   0.0078  -0.0013  -0.0007   0.0046   0.00   61.1
2023/08/01 08:16:53.000   61.449231246   23.857205071   164.2110   1   8   0.0051   0.0025   0.0078  -0.0013   0.0002   0.0045   0.00   61.4
2023/08/01 08:16:54.000   61.449226696   23.857230633   164.2634   1   8   0.0050   0.0023   0.0078  -0.0013  -0.0002   0.0046   0.00   62.1
2023/08/01 08:16:55.000   61.449221924   23.857257003   164.3075   1   8   0.0052   0.0025   0.0078  -0.0009  -0.0006   0.0045   0.00   62.5
2023/08/01 08:16:56.000   61.449216959   23.857281612   164.3497   1   8   0.0050   0.0025   0.0078  -0.0013  -0.0002   0.0046   0.00   63.1
2023/08/01 08:16:57.000   61.449211160   23.857305839   164.3922   1   8   0.0048   0.0023   0.0078  -0.0014  -0.0007   0.0047   0.00   63.6
2023/08/01 08:16:58.000   61.449206578   23.857330253   164.4530   1   8   0.0050   0.0022   0.0078  -0.0010  -0.0006   0.0046   0.00   64.0
2023/08/01 08:16:59.000   61.449201907   23.857353929   164.4801   1   8   0.0048   0.0022   0.0078  -0.0018   0.0009   0.0047   0.00   65.0
2023/08/01 08:17:00.000   61.449197837   23.857380395   164.4879   1   8   0.0071   0.0035   0.0110  -0.0010  -0.0010   0.0065   0.00   65.5
2023/08/01 08:17:01.000   61.449193979   23.857408147   164.7360   2   8   0.0315   0.0232   0.0576  -0.0081   0.0103   0.0113   0.00    1.4
2023/08/01 08:17:02.000   61.449190013   23.857434903   164.6971   2   8   0.0314   0.0231   0.0575  -0.0081   0.0104   0.0108   0.00    2.0
2023/08/01 08:17:03.000   61.449186368   23.857461787   164.4554   1   7   0.0074   0.0035   0.0127  -0.0029  -0.0032   0.0075   0.00    3.7
2023/08/01 08:17:04.000   61.449182344   23.857490706   164.7199   2   8   0.0314   0.0233   0.0576  -0.0083   0.0100   0.0110   0.00    1.6
2023/08/01 08:17:05.000   61.449179988   23.857519284   164.4987   1   7   0.0056   0.0027   0.0112  -0.0016  -0.0020   0.0063   0.00   53.1
2023/08/01 08:17:06.000   61.449178460   23.857547536   164.6639   1   8   0.0073   0.0036   0.0139  -0.0019  -0.0008   0.0081   0.00    3.3
2023/08/01 08:17:07.000   61.449177081   23.857575483   164.7006   1   8   0.0075   0.0037   0.0114  -0.0009  -0.0006   0.0064   0.00    3.6
2023/08/01 08:17:08.000   61.449176715   23.857602804   164.7088   1   8   0.0051   0.0024   0.0081  -0.0011   0.0011   0.0047   0.00    3.2
2023/08/01 08:17:09.000   61.449178929   23.857630484   164.6205   1   8   0.0073   0.0036   0.0133  -0.0026  -0.0029   0.0078   0.00    3.0
2023/08/01 08:17:10.000   61.449182017   23.857657553   164.5775   1   7   0.0072   0.0037   0.0131  -0.0026  -0.0031   0.0078   0.00    5.0
2023/08/01 08:17:11.000   61.449185494   23.857683941   164.5552   1   8   0.0073   0.0038   0.0131  -0.0023  -0.0032   0.0078   0.00    4.1
2023/08/01 08:17:12.000   61.449189266   23.857710522   164.5027   1   8   0.0073   0.0032   0.0123  -0.0023  -0.0021   0.0072   0.00    6.3
2023/08/01 08:17:13.000   61.449193417   23.857737404   164.6299   2   7   0.0316   0.0233   0.0610  -0.0080   0.0116   0.0148   0.00    2.6
2023/08/01 08:17:14.000   61.449199067   23.857763427   164.6689   2   6   0.0329   0.0234   0.0632  -0.0081   0.0114   0.0162   0.00    1.7
2023/08/01 08:17:15.000   61.449212229   23.857784610   167.4275   2   5   0.0342   0.0236   0.0632  -0.0098   0.0097   0.0172   0.00    1.3
2023/08/01 08:17:16.000   61.449218449   23.857810554   167.8022   2   7   0.0337   0.0234   0.0629  -0.0093   0.0103   0.0166   0.00    1.1
2023/08/01 08:17:17.000   61.449226597   23.857836552   168.5611   2   6   0.0339   0.0234   0.0647  -0.0087   0.0118   0.0186   0.00    1.1
2023/08/01 08:17:18.000   61.449233069   23.857861366   168.5181   2   5   0.0346   0.0234   0.0649  -0.0085   0.0119   0.0194   0.00    1.1
2023/08/01 08:17:19.000   61.449238711   23.857885783   168.4454   2   5   0.0347   0.0234   0.0655  -0.0086   0.0119   0.0194   0.00    1.0
2023/08/01 08:17:20.000   61.449234589   23.857910602   164.1652   1   6   0.0083   0.0046   0.0191   0.0027   0.0068   0.0103   0.00    4.1
2023/08/01 08:17:21.000   61.449240967   23.857935125   164.0931   1   6   0.0082   0.0049   0.0194   0.0027   0.0068   0.0105   0.00    5.4
2023/08/01 08:17:22.000   61.449246991   23.857960747   164.1300   1   7   0.0080   0.0049   0.0185   0.0028   0.0056   0.0101   0.00    5.8
2023/08/01 08:17:23.000   61.449259763   23.857985972   167.7533   2   7   0.0398   0.0234   0.0747  -0.0088   0.0117   0.0317   0.00    1.1
2023/08/01 08:17:24.000   61.449265474   23.858011390   167.7301   2   6   0.0397   0.0234   0.0749  -0.0088   0.0118   0.0318   0.00    1.0
2023/08/01 08:17:25.000   61.449263269   23.858036928   163.8166   1   6   0.0079   0.0048   0.0179   0.0031   0.0067   0.0096   0.00   14.9
2023/08/01 08:17:26.000   61.449268790   23.858062029   163.6808   1   6   0.0080   0.0047   0.0179   0.0026   0.0068   0.0096   0.00   14.6
2023/08/01 08:17:27.000   61.449274072   23.858087720   163.6022   1   6   0.0078   0.0046   0.0178   0.0027   0.0068   0.0097   0.00   13.5
2023/08/01 08:17:28.000   61.449281641   23.858116989   164.5527   1   7   0.0077   0.0047   0.0161   0.0022   0.0057   0.0089   0.00   12.5
2023/08/01 08:17:29.000   61.449284987   23.858138599   163.3978   1   7   0.0079   0.0046   0.0179   0.0025   0.0068   0.0097   0.00   11.0
2023/08/01 08:17:30.000   61.449291064   23.858164557   163.3010   1   6   0.0083   0.0048   0.0179   0.0029   0.0068   0.0095   0.00   11.8
2023/08/01 08:17:31.000   61.449304417   23.858190688   167.0280   2   7   0.0398   0.0234   0.0747  -0.0089   0.0116   0.0319   0.00    1.0
2023/08/01 08:17:32.000   61.449310112   23.858216367   166.9916   2   8   0.0398   0.0233   0.0745  -0.0089   0.0115   0.0319   0.00    1.0
2023/08/01 08:17:33.000   61.449308476   23.858241453   163.0577   1   7   0.0080   0.0050   0.0179   0.0031   0.0068   0.0096   0.00   10.9
2023/08/01 08:17:34.000   61.449314987   23.858266999   163.0136   1   6   0.0078   0.0045   0.0179   0.0025   0.0069   0.0097   0.00   11.0
2023/08/01 08:17:35.000   61.449321313   23.858293799   163.1241   1   8   0.0075   0.0037   0.0129  -0.0005   0.0031   0.0072   0.00   11.0
2023/08/01 08:17:36.000   61.449334286   23.858319114   166.6974   2   8   0.0397   0.0233   0.0741  -0.0092   0.0109   0.0315   0.00    1.0
2023/08/01 08:17:37.000   61.449332624   23.858345917   163.0427   1   8   0.0074   0.0039   0.0122  -0.0014   0.0023   0.0070   0.00   11.8
2023/08/01 08:17:38.000   61.449338456   23.858372095   163.0239   1   8   0.0071   0.0038   0.0123  -0.0016   0.0023   0.0071   0.00   10.7
2023/08/01 08:17:39.000   61.449344861   23.858397866   163.0234   1   8   0.0073   0.0036   0.0124  -0.0019   0.0027   0.0071   0.00    9.0
2023/08/01 08:17:40.000   61.449351223   23.858424167   162.9747   1   8   0.0074   0.0035   0.0117  -0.0011   0.0015   0.0067   0.00    8.3
2023/08/01 08:17:41.000   61.449357704   23.858449630   162.9908   1   8   0.0074   0.0035   0.0119  -0.0015   0.0023   0.0069   0.00    6.6
2023/08/01 08:17:42.000   61.449363198   23.858474633   162.7206   1   7   0.0071   0.0040   0.0128  -0.0015   0.0034   0.0073   0.00    5.0
2023/08/01 08:17:43.000   61.449375132   23.858499676   166.0587   2   8   0.0397   0.0233   0.0737  -0.0093   0.0107   0.0313   0.00    1.0
2023/08/01 08:17:44.000   61.449382103   23.858527641   166.4388   2   8   0.0397   0.0233   0.0738  -0.0094   0.0110   0.0313   0.00    1.1
2023/08/01 08:17:45.000   61.449388439   23.858553521   166.4426   2   8   0.0397   0.0233   0.0739  -0.0092   0.0111   0.0314   0.00    1.1
2023/08/01 08:17:46.000   61.449394847   23.858578322   166.4554   2   8   0.0397   0.0233   0.0738  -0.0093   0.0110   0.0313   0.00    1.2
2023/08/01 08:17:47.000   61.449401134   23.858603926   166.4504   2   7   0.0397   0.0233   0.0741  -0.0096   0.0105   0.0315   0.00    1.0
2023/08/01 08:17:48.000   61.449407071   23.858629122   166.3395   2   8   0.0398   0.0234   0.0744  -0.0098   0.0100   0.0318   0.00    1.1
2023/08/01 08:17:49.000   61.449413873   23.858654081   166.2962   2   7   0.0398   0.0233   0.0744  -0.0096   0.0103   0.0318   0.00    1.1
2023/08/01 08:17:50.000   61.449420106   23.858679567   166.2691   2   7   0.0398   0.0233   0.0742  -0.0097   0.0102   0.0316   0.00    1.1
2023/08/01 08:17:51.000   61.449425885   23.858705445   166.2692   2   7   0.0398   0.0233   0.0746  -0.0098   0.0101   0.0319   0.00    1.0
2023/08/01 08:17:52.000   61.449430416   23.858731605   166.2513   2   6   0.0398   0.0233   0.0747  -0.0097   0.0100   0.0319   0.00    1.1
2023/08/01 08:17:53.000   61.449438165   23.858754130   166.9354   2   7   0.0398   0.0233   0.0742  -0.0099   0.0103   0.0315   0.00    1.1
2023/08/01 08:17:54.000   61.449447449   23.858781943   168.0921   2   8   0.0412   0.0235   0.0764  -0.0094   0.0117   0.0339   0.00    1.2
2023/08/01 08:17:55.000   61.449444353   23.858809858   166.0269   2   7   0.0406   0.0234   0.0755  -0.0097   0.0112   0.0329   0.00    1.2
2023/08/01 08:17:56.000   61.449451563   23.858835229   166.6178   2   8   0.0407   0.0234   0.0765  -0.0096   0.0109   0.0338   0.00    1.1
2023/08/01 08:17:57.000   61.449456178   23.858860535   166.2115   2   8   0.0404   0.0233   0.0753  -0.0096   0.0109   0.0328   0.00    1.2
2023/08/01 08:17:58.000   61.449460755   23.858886185   165.8556   2   8   0.0402   0.0233   0.0750  -0.0096   0.0109   0.0324   0.00    1.0
2023/08/01 08:17:59.000   61.449465601   23.858912227   165.6502   2   7   0.0401   0.0233   0.0747  -0.0096   0.0111   0.0321   0.00    1.0
2023/08/01 08:18:00.000   61.449471479   23.858937043   165.4378   2   8   0.0400   0.0233   0.0744  -0.0096   0.0110   0.0319   0.00    1.0
2023/08/01 08:18:01.000   61.449476363   23.858960427   165.1376   2   7   0.0400   0.0233   0.0745  -0.0097   0.0106   0.0320   0.00    1.0
2023/08/01 08:18:02.000   61.449482241   23.858984911   164.9700   2   8   0.0401   0.0234   0.0746  -0.0098   0.0101   0.0320   0.00    1.0
2023/08/01 08:18:03.000   61.449489410   23.859011713   164.9328   2   7   0.0402   0.0236   0.0747  -0.0091   0.0108   0.0323   0.00    1.0
2023/08/01 08:18:04.000   61.449494240   23.859039882   164.4759   2   8   0.0403   0.0235   0.0745  -0.0092   0.0111   0.0321   0.00    1.2
2023/08/01 08:18:05.000   61.449502461   23.859064592   165.2625   2   6   0.0420   0.0238   0.0772  -0.0087   0.0141   0.0347   0.00    1.3
2023/08/01 08:18:06.000   61.449506098   23.859090399   164.7625   2   8   0.0462   0.0238   0.0843  -0.0094   0.0134   0.0430   0.00    1.1
2023/08/01 08:18:07.000   61.449512698   23.859114719   164.7186   2   6   0.0468   0.0244   0.0832  -0.0105   0.0149   0.0420   0.00    1.3
2023/08/01 08:18:08.000   61.449519102   23.859140470   164.7914   2   8   0.0466   0.0238   0.0824  -0.0094   0.0136   0.0423   0.00    1.2
2023/08/01 08:18:09.000   61.449524862   23.859166172   164.7326   2   7   0.0464   0.0237   0.0825  -0.0098   0.0123   0.0423   0.00    1.0
2023/08/01 08:18:10.000   61.449530733   23.859191134   164.7331   2   7   0.0462   0.0238   0.0822  -0.0098   0.0125   0.0421   0.00    1.0
2023/08/01 08:18:11.000   61.449536638   23.859217664   164.6688   2   6   0.0461   0.0237   0.0822  -0.0098   0.0128   0.0420   0.00    1.0
2023/08/01 08:18:12.000   61.449541864   23.859243466   164.6190   2   6   0.0462   0.0238   0.0822  -0.0101   0.0124   0.0420   0.00    1.4
2023/08/01 08:18:13.000   61.449549096   23.859267745   164.5541   2   7   0.0486   0.0245   0.0874  -0.0070   0.0177   0.0463   0.00    1.1
2023/08/01 08:18:14.000   61.449554906   23.859293530   164.6106   2   7   0.0486   0.0242   0.0857  -0.0080   0.0162   0.0456   0.00    1.1
2023/08/01 08:18:15.000   61.449560919   23.859318867   164.6128   2   8   0.0483   0.0240   0.0847  -0.0088   0.0151   0.0450   0.00    1.3
2023/08/01 08:18:16.000   61.449566421   23.859343251   164.6052   2   8   0.0482   0.0239   0.0842  -0.0092   0.0145   0.0448   0.00    1.2
2023/08/01 08:18:17.000   61.449572430   23.859367336   164.6727   2   7   0.0481   0.0239   0.0841  -0.0092   0.0144   0.0447   0.00    1.2
2023/08/01 08:18:18.000   61.449578952   23.859392124   164.6505   2   7   0.0483   0.0239   0.0840  -0.0091   0.0140   0.0444   0.00    1.4
2023/08/01 08:18:19.000   61.449585155   23.859418451   164.5963   2   8   0.0484   0.0239   0.0841  -0.0091   0.0143   0.0444   0.00    1.1
2023/08/01 08:18:20.000   61.449590066   23.859445898   164.6283   2   8   0.0483   0.0240   0.0841  -0.0091   0.0141   0.0444   0.00    1.2
2023/08/01 08:18:21.000   61.449595918   23.859472247   164.6391   2   7   0.0483   0.0239   0.0839  -0.0094   0.0138   0.0443   0.00    1.1
2023/08/01 08:18:22.000   61.449602329   23.859498077   164.6628   2   6   0.0484   0.0239   0.0840  -0.0095   0.0139   0.0444   0.00    1.2
2023/08/01 08:18:32.000   61.449663967   23.859747520   164.4684   2   7   0.0483   0.0240   0.0844  -0.0094   0.0148   0.0444   0.00    1.1
2023/08/01 08:18:35.000   61.449681938   23.859824156   164.3805   2   7   0.0483   0.0240   0.0840  -0.0096   0.0143   0.0442   0.00    1.5
2023/08/01 08:18:38.000   61.449692784   23.859907929   164.6775   2   5   0.0483   0.0240   0.0844  -0.0096   0.0150   0.0443   0.00    1.4
2023/08/01 08:18:41.000   61.449695729   23.860004538   165.5122   2   6   0.0491   0.0248   0.0836  -0.0122   0.0136   0.0442   0.00    1.4
2023/08/01 08:18:42.000   61.449700332   23.860031896   165.3800   2   7   0.0488   0.0246   0.0834  -0.0116   0.0138   0.0439   0.00    1.6
2023/08/01 08:18:43.000   61.449708975   23.860046659   164.6445   2   7   0.0513   0.0305   0.0853  -0.0207   0.0225   0.0408   0.00    1.1
2023/08/01 08:18:44.000   61.449713762   23.860073565   164.6518   2   7   0.0502   0.0278   0.0838  -0.0172   0.0181   0.0421   0.00    1.3
2023/08/01 08:18:45.000   61.449718487   23.860100310   164.6068   2   6   0.0499   0.0268   0.0840  -0.0160   0.0158   0.0428   0.00    1.3
2023/08/01 08:18:46.000   61.449723344   23.860127123   164.5704   2   6   0.0497   0.0263   0.0837  -0.0154   0.0148   0.0431   0.00    1.1
2023/08/01 08:18:47.000   61.449727959   23.860154381   164.5841   2   7   0.0497   0.0261   0.0860  -0.0151   0.0131   0.0440   0.00    1.1
2023/08/01 08:18:48.000   61.449733278   23.860181026   164.6323   2   7   0.0496   0.0258   0.0852  -0.0148   0.0130   0.0440   0.00    1.0
2023/08/01 08:18:49.000   61.449738731   23.860208109   164.6610   2   6   0.0497   0.0258   0.0864  -0.0146   0.0124   0.0446   0.00    1.2
2023/08/01 08:18:50.000   61.449750410   23.860245256   163.8543   2   6   0.0506   0.0263   0.0863  -0.0123   0.0114   0.0443   0.00    1.9
2023/08/01 08:18:51.000   61.449754620   23.860270666   164.2828   2   5   0.0540   0.0275   0.0942   0.0042   0.0230   0.0518   0.00    1.6
2023/08/01 08:18:52.000   61.449729707   23.860298310   159.9972   2   5   0.4062   0.0298   0.5440  -0.0672  -0.0736   0.4669   0.00    1.0
2023/08/01 08:18:53.000   61.449764417   23.860319220   164.3621   2   7   0.0609   0.0314   0.1079  -0.0125   0.0238   0.0618   0.00    1.4
2023/08/01 08:18:54.000   61.449770021   23.860345629   164.0770   2   6   0.0647   0.0321   0.1196  -0.0134   0.0245   0.0685   0.00    1.2
2023/08/01 08:18:55.000   61.449765499   23.860368135   163.0506   2   4   0.0690   0.0407   0.1501   0.0167   0.0588   0.0774   0.00    1.2
2023/08/01 08:18:56.000   61.449771181   23.860396142   163.9525   2   4   0.0692   0.0383   0.1517   0.0187   0.0562   0.0794   0.00    1.4
2023/08/01 08:18:57.000   61.449776514   23.860415445   163.0704   2   4   0.0696   0.0405   0.1526   0.0168   0.0587   0.0787   0.00    1.2
2023/08/01 08:18:58.000   61.449782302   23.860443652   164.3535   2   6   0.0699   0.0382   0.1575   0.0191   0.0563   0.0817   0.00    1.2
2023/08/01 08:18:59.000   61.449787666   23.860466224   164.1432   2   5   0.0702   0.0384   0.1566   0.0187   0.0564   0.0816   0.00    1.1
2023/08/01 08:19:00.000   61.449792670   23.860492022   164.7301   2   6   0.0703   0.0383   0.1571   0.0191   0.0565   0.0820   0.00    2.1
2023/08/01 08:19:01.000   61.449796407   23.860517037   163.5533   2   6   0.0714   0.0380   0.1678   0.0198   0.0565   0.0863   0.00    1.7
2023/08/01 08:19:02.000   61.449803127   23.860540565   163.6550   2   6   0.0712   0.0380   0.1642   0.0199   0.0565   0.0853   0.00    2.1
2023/08/01 08:19:03.000   61.449809123   23.860565785   163.7407   2   6   0.0714   0.0380   0.1623   0.0199   0.0566   0.0849   0.00    2.3
2023/08/01 08:19:04.000   61.449815634   23.860589507   163.7061   2   6   0.0715   0.0380   0.1621   0.0200   0.0566   0.0851   0.00    2.4
2023/08/01 08:19:08.000   61.449840596   23.860685495   163.8533   2   6   0.0718   0.0380   0.1630   0.0201   0.0567   0.0857   0.00    1.5
2023/08/01 08:19:09.000   61.449846106   23.860710452   163.9340   2   5   0.0719   0.0380   0.1626   0.0200   0.0568   0.0857   0.00    2.6
2023/08/01 08:19:10.000   61.449853957   23.860735835   164.4587   1   5   0.0091   0.0048   0.0234   0.0026   0.0068   0.0126   0.00    3.3
2023/08/01 08:19:11.000   61.449855675   23.860760817   163.9158   2   5   0.0723   0.0380   0.1649   0.0201   0.0569   0.0866   0.00    1.1
2023/08/01 08:19:12.000   61.449859953   23.860786283   163.8714   2   6   0.0727   0.0381   0.1699   0.0202   0.0571   0.0883   0.00    1.1
2023/08/01 08:19:13.000   61.449855452   23.860809531   157.0302   2   6   0.0840   0.0376   0.3068   0.0178   0.0522   0.1362   0.00    1.4
2023/08/01 08:19:14.000   61.449861789   23.860834088   157.0253   2   6   0.0842   0.0377   0.3072   0.0178   0.0522   0.1365   0.00    2.2
2023/08/01 08:19:15.000   61.449867932   23.860858809   157.0580   2   6   0.0843   0.0377   0.3075   0.0178   0.0523   0.1367   0.00    2.5
2023/08/01 08:19:16.000   61.449873568   23.860883856   157.0309   2   6   0.0844   0.0377   0.3077   0.0178   0.0523   0.1369   0.00    3.0
2023/08/01 08:19:17.000   61.449888377   23.860909533   161.5688   1   6   0.0078   0.0048   0.0178   0.0028   0.0067   0.0095   0.00    3.1
2023/08/01 08:19:18.000   61.449894060   23.860933231   161.5654   1   6   0.0081   0.0048   0.0178   0.0029   0.0068   0.0095   0.00    3.4
2023/08/01 08:19:19.000   61.449900504   23.860957285   161.5723   1   6   0.0079   0.0046   0.0177   0.0023   0.0068   0.0095   0.00    3.9
2023/08/01 08:19:20.000   61.449907030   23.860981237   161.5601   1   6   0.0077   0.0045   0.0177   0.0026   0.0069   0.0096   0.00    3.5
2023/08/01 08:19:21.000   61.449905015   23.861004155   157.2385   2   7   0.0842   0.0375   0.3049   0.0167   0.0511   0.1357   0.00    1.9
2023/08/01 08:19:22.000   61.449910903   23.861027904   157.1154   2   6   0.0842   0.0375   0.3060   0.0167   0.0511   0.1358   0.00    1.3
2023/08/01 08:19:23.000   61.449918367   23.861050140   157.1048   2   6   0.0840   0.0375   0.3058   0.0168   0.0510   0.1357   0.00    1.6
2023/08/01 08:19:24.000   61.449925573   23.861072184   157.0418   2   5   0.0844   0.0376   0.3085   0.0168   0.0512   0.1368   0.00    1.0
2023/08/01 08:19:25.000   61.449938037   23.861098490   157.6428   2   6   0.0843   0.0375   0.3071   0.0166   0.0509   0.1363   0.00    1.1
2023/08/01 08:19:26.000   61.449949031   23.861115018   161.1982   2   5   0.0846   0.0375   0.3106   0.0164   0.0508   0.1373   0.00    1.0
2023/08/01 08:19:27.000   61.449958765   23.861134761   161.4097   2   5   0.1031   0.0376   0.4637   0.0212   0.0605   0.1978   0.00    1.0
2023/08/01 08:19:30.000   61.450013661   23.861178739   175.0562   2   5   0.0843   0.0376   0.3096   0.0167   0.0519   0.1366   0.00    1.0
2023/08/01 08:19:32.000   61.450018734   23.861194210   161.4113   2   5   0.1071   0.0380   0.4982   0.0249   0.0689   0.2107   0.00    1.0
2023/08/01 08:19:33.000   61.450031866   23.861200956   161.6285   2   6   0.1047   0.0379   0.4856   0.0237   0.0667   0.2045   0.00    1.0
2023/08/01 08:19:34.000   61.450044925   23.861206094   161.4597   2   6   0.1037   0.0379   0.4835   0.0235   0.0669   0.2025   0.00    1.0
2023/08/01 08:19:35.000   61.450058146   23.861210904   161.6033   2   7   0.1025   0.0379   0.4780   0.0234   0.0670   0.1997   0.00    1.0
2023/08/01 08:19:36.000   61.450071044   23.861213442   161.5199   2   6   0.1029   0.0381   0.4881   0.0245   0.0698   0.2024   0.00    1.0
2023/08/01 08:19:37.000   61.450086244   23.861217293   163.1666   2   6   0.0715   0.0369   0.1909  -0.0123   0.0191   0.0875   0.00    1.2
2023/08/01 08:19:38.000   61.450098923   23.861221255   163.0484   2   6   0.0715   0.0369   0.1905  -0.0123   0.0192   0.0874   0.00    1.2
2023/08/01 08:19:39.000   61.450111753   23.861224972   162.8353   2   6   0.0715   0.0369   0.1901  -0.0123   0.0192   0.0872   0.00    1.4
2023/08/01 08:19:40.000   61.450124715   23.861228756   162.6960   2   6   0.0714   0.0369   0.1897  -0.0123   0.0193   0.0871   0.00    1.5
2023/08/01 08:19:41.000   61.450137700   23.861233517   162.5153   2   6   0.0714   0.0369   0.1893  -0.0123   0.0194   0.0869   0.00    1.6
2023/08/01 08:19:42.000   61.450149925   23.861236011   161.8079   2   7   0.0712   0.0368   0.1877  -0.0128   0.0179   0.0862   0.00    1.8
2023/08/01 08:19:43.000   61.450166391   23.861242584   163.4430   2   7   0.0712   0.0368   0.1871  -0.0128   0.0180   0.0859   0.00    1.2
2023/08/01 08:19:44.000   61.450179256   23.861248046   163.2029   2   7   0.0711   0.0368   0.1865  -0.0128   0.0181   0.0855   0.00    1.4
2023/08/01 08:19:45.000   61.450191780   23.861252248   162.9330   2   7   0.0710   0.0368   0.1861  -0.0128   0.0181   0.0852   0.00    1.1
2023/08/01 08:19:46.000   61.450204770   23.861256255   162.7090   2   6   0.0709   0.0368   0.1860  -0.0128   0.0178   0.0849   0.00    1.0
2023/08/01 08:19:47.000   61.450212809   23.861256614   159.0183   2   5   0.0713   0.0369   0.1911  -0.0122   0.0204   0.0869   0.00    1.0
2023/08/01 08:19:48.000   61.450227943   23.861258740   158.1741   2   6   0.0211   0.0037   0.1221   0.0058   0.0143   0.0499   0.00    9.5
2023/08/01 08:19:49.000   61.450240758   23.861259315   157.6241   2   5   0.0211   0.0037   0.1221   0.0058   0.0143   0.0499   0.00    9.9
2023/08/01 08:19:50.000   61.450250737   23.861261706   157.1455   2   5   0.0703   0.0368   0.1838  -0.0130   0.0173   0.0834   0.00    1.0
2023/08/01 08:19:51.000   61.450267500   23.861261056   158.6491   1   6   0.0210   0.0037   0.1211   0.0058   0.0147   0.0497   0.00    9.4
2023/08/01 08:19:52.000   61.450280885   23.861266272   157.0688   2   5   0.0210   0.0037   0.1219   0.0058   0.0144   0.0499   0.00    9.5
2023/08/01 08:19:53.000   61.450291957   23.861267458   157.2258   2   6   0.0696   0.0369   0.1798  -0.0130   0.0180   0.0812   0.00    1.0
2023/08/01 08:19:54.000   61.450306220   23.861269834   157.3166   2   6   0.0694   0.0368   0.1791  -0.0130   0.0182   0.0808   0.00    1.0
2023/08/01 08:19:55.000   61.450319398   23.861270891   157.2336   2   6   0.0691   0.0368   0.1769  -0.0133   0.0172   0.0797   0.00    1.0
2023/08/01 08:19:56.000   61.450333261   23.861271748   157.2801   2   7   0.0688   0.0368   0.1757  -0.0133   0.0174   0.0789   0.00    1.0
2023/08/01 08:19:57.000   61.450347438   23.861273058   157.3758   2   7   0.0685   0.0368   0.1747  -0.0133   0.0173   0.0782   0.00    1.1
2023/08/01 08:19:58.000   61.450361030   23.861276731   157.3209   2   7   0.0683   0.0368   0.1739  -0.0133   0.0171   0.0775   0.00    1.2
2023/08/01 08:19:59.000   61.450375074   23.861278784   157.4213   2   8   0.0679   0.0368   0.1719  -0.0133   0.0173   0.0764   0.00    1.3
2023/08/01 08:20:00.000   61.450388519   23.861280483   157.4493   2   7   0.0676   0.0368   0.1711  -0.0134   0.0170   0.0757   0.00    1.4
2023/08/01 08:20:01.000   61.450401730   23.861283444   157.5424   2   7   0.0673   0.0368   0.1699  -0.0134   0.0171   0.0748   0.00    1.5
2023/08/01 08:20:02.000   61.450415307   23.861286064   157.6107   2   7   0.0670   0.0368   0.1686  -0.0134   0.0172   0.0739   0.00    1.9
2023/08/01 08:20:03.000   61.450428716   23.861289615   157.7983   2   7   0.0667   0.0368   0.1673  -0.0134   0.0173   0.0729   0.00    2.3
2023/08/01 08:20:04.000   61.450442500   23.861291976   157.9220   2   7   0.0663   0.0368   0.1660  -0.0133   0.0175   0.0720   0.00    2.6
2023/08/01 08:20:05.000   61.450456399   23.861294469   158.1851   2   7   0.0660   0.0368   0.1645  -0.0134   0.0174   0.0709   0.00    1.7
2023/08/01 08:20:06.000   61.450473148   23.861295128   159.1189   1   7   0.0079   0.0040   0.0151  -0.0033  -0.0050   0.0088   0.00    3.1
2023/08/01 08:20:07.000   61.450484601   23.861295702   159.2559   2   7   0.0654   0.0368   0.1625  -0.0135   0.0171   0.0692   0.00    2.9
2023/08/01 08:20:08.000   61.450499386   23.861294158   159.1459   1   7   0.0078   0.0042   0.0151  -0.0037  -0.0049   0.0089   0.00    3.1
2023/08/01 08:20:09.000   61.450510958   23.861293005   159.3265   2   6   0.0647   0.0369   0.1606  -0.0133   0.0180   0.0675   0.00    2.8
2023/08/01 08:20:10.000   61.450531182   23.861289257   162.1297   2   5   0.0644   0.0369   0.1594  -0.0130   0.0194   0.0664   0.00    1.1
2023/08/01 08:20:11.000   61.450544771   23.861282406   163.8765   2   6   0.0640   0.0369   0.1584  -0.0130   0.0192   0.0653   0.00    1.1
2023/08/01 08:20:12.000   61.450556283   23.861270488   163.7539   2   8   0.0637   0.0368   0.1561  -0.0131   0.0187   0.0640   0.00    1.0
2023/08/01 08:20:13.000   61.450559783   23.861249120   159.6591   2   7   0.0793   0.0369   0.3150  -0.0104   0.0272   0.1304   0.00    1.0
2023/08/01 08:20:17.000   61.450564503   23.861143090   165.1453   2   6   0.0645   0.0368   0.1580  -0.0133   0.0178   0.0648   0.00    1.0
2023/08/01 08:20:18.000   61.450552020   23.861116739   159.8326   2   5   0.0867   0.0369   0.3709  -0.0078   0.0323   0.1533   0.00    1.0
2023/08/01 08:20:19.000   61.450548715   23.861091808   160.5660   2   6   0.0869   0.0369   0.3690  -0.0083   0.0319   0.1523   0.00    1.2
2023/08/01 08:20:20.000   61.450543313   23.861065335   160.2109   2   6   0.0875   0.0369   0.3728  -0.0089   0.0302   0.1544   0.00    1.1
2023/08/01 08:20:21.000   61.450539791   23.861038092   160.5780   2   6   0.0908   0.0370   0.4055   0.0027   0.0381   0.1668   0.00    1.2
2023/08/01 08:20:22.000   61.450528524   23.861012538   156.6652   2   5   0.1018   0.0375   0.4913   0.0170   0.0560   0.2015   0.00    1.0
2023/08/01 08:20:23.000   61.450533022   23.860987507   161.6946   1   5   0.0300   0.0043   0.1770   0.0091   0.0223   0.0723   0.00    3.4
2023/08/01 08:20:24.000   61.450526366   23.860962077   160.9686   2   6   0.0801   0.0368   0.3041  -0.0136   0.0147   0.1278   0.00    1.0
2023/08/01 08:20:25.000   61.450519742   23.860934335   158.7685   2   6   0.0811   0.0368   0.3137  -0.0133   0.0165   0.1316   0.00    1.3
2023/08/01 08:20:26.000   61.450516852   23.860906874   159.1724   2   6   0.0791   0.0367   0.2994  -0.0138   0.0148   0.1252   0.00    1.2
2023/08/01 08:20:27.000   61.450515067   23.860880464   159.6343   2   6   0.0793   0.0367   0.3027  -0.0136   0.0163   0.1262   0.00    1.5
2023/08/01 08:20:28.000   61.450514845   23.860853178   159.6809   2   6   0.0802   0.0368   0.3124  -0.0130   0.0195   0.1297   0.00    1.5
2023/08/01 08:20:29.000   61.450515971   23.860824744   159.8866   2   6   0.0062   0.0032   0.0172  -0.0019  -0.0041   0.0077   0.00    3.7
2023/08/01 08:20:30.000   61.450515088   23.860797405   159.4837   1   5   0.0789   0.0092   0.4712   0.0249   0.0611   0.1924   0.00   12.9
2023/08/01 08:20:31.000   61.450512662   23.860768661   158.5848   2   6   0.0713   0.0367   0.2109  -0.0162  -0.0149   0.0917   0.00    1.3
2023/08/01 08:20:32.000   61.450511971   23.860739103   158.5354   2   6   0.0707   0.0367   0.2054  -0.0166  -0.0166   0.0892   0.00    1.9
2023/08/01 08:20:33.000   61.450512225   23.860709996   158.7857   2   6   0.0704   0.0367   0.2024  -0.0168  -0.0174   0.0878   0.00    2.1
2023/08/01 08:20:34.000   61.450510656   23.860680971   158.8082   2   5   0.0701   0.0367   0.2014  -0.0168  -0.0168   0.0869   0.00    2.7
2023/08/01 08:20:35.000   61.450507297   23.860655645   158.9548   2   5   0.0701   0.0367   0.2025  -0.0167  -0.0159   0.0872   0.00    2.8
2023/08/01 08:20:36.000   61.450505991   23.860629179   160.3637   1   6   0.0085   0.0040   0.0162  -0.0025  -0.0034   0.0077   0.00    5.0
2023/08/01 08:20:37.000   61.450500964   23.860604206   160.5337   1   6   0.0080   0.0040   0.0135  -0.0019  -0.0042   0.0069   0.00    4.8
2023/08/01 08:20:38.000   61.450495865   23.860578642   160.6720   1   6   0.0079   0.0037   0.0136  -0.0016  -0.0042   0.0069   0.00    4.4
2023/08/01 08:20:43.000   61.450468994   23.860452823   161.4261   1   6   0.0079   0.0037   0.0135  -0.0018  -0.0043   0.0069   0.00    7.3
2023/08/01 08:20:44.000   61.450462160   23.860426298   160.4937   2   6   0.0703   0.0367   0.2029  -0.0169  -0.0164   0.0877   0.00    1.7
2023/08/01 08:20:45.000   61.450457174   23.860399878   160.6341   2   6   0.0703   0.0367   0.2030  -0.0169  -0.0164   0.0878   0.00    1.0
2023/08/01 08:20:46.000   61.450452089   23.860374002   160.7831   2   6   0.0703   0.0367   0.2031  -0.0170  -0.0164   0.0878   0.00    1.6
2023/08/01 08:20:47.000   61.450447090   23.860348863   160.9909   2   6   0.0703   0.0367   0.2032  -0.0170  -0.0164   0.0878   0.00    1.8
2023/08/01 08:20:48.000   61.450442652   23.860324894   161.5886   1   7   0.0080   0.0038   0.0136  -0.0023  -0.0042   0.0069   0.00    4.1
2023/08/01 08:20:49.000   61.450437426   23.860299279   161.6140   1   7   0.0081   0.0040   0.0146  -0.0015  -0.0018   0.0072   0.00    7.1
2023/08/01 08:20:50.000   61.450432086   23.860273367   161.6418   1   5   0.0081   0.0040   0.0162  -0.0017  -0.0034   0.0078   0.00    8.2
2023/08/01 08:20:51.000   61.450427034   23.860247400   161.6535   1   7   0.0080   0.0041   0.0162  -0.0018  -0.0034   0.0079   0.00    8.1
2023/08/01 08:20:52.000   61.450422673   23.860221232   161.6998   1   5   0.0080   0.0035   0.0162  -0.0008  -0.0036   0.0079   0.00   11.2
2023/08/01 08:20:53.000   61.450417756   23.860195079   161.7002   1   7   0.0082   0.0041   0.0162  -0.0023  -0.0032   0.0078   0.00    8.7
2023/08/01 08:20:54.000   61.450413639   23.860173481   160.3882   1   5   0.0098   0.0051   0.0176  -0.0047  -0.0056   0.0104   0.00    3.5
2023/08/01 08:20:55.000   61.450402243   23.860148809   160.8365   1   7   0.0096   0.0050   0.0173  -0.0047  -0.0056   0.0106   0.00    5.4
2023/08/01 08:20:56.000   61.450396909   23.860123371   160.9032   2   6   0.0715   0.0375   0.2047  -0.0199  -0.0200   0.0896   0.00    2.5
2023/08/01 08:20:57.000   61.450397609   23.860091889   162.5127   2   7   0.0709   0.0371   0.2033  -0.0187  -0.0182   0.0884   0.00    1.3
2023/08/01 08:20:58.000   61.450392317   23.860067382   162.8717   2   6   0.0716   0.0373   0.2102  -0.0194  -0.0204   0.0912   0.00    1.5
2023/08/01 08:20:59.000   61.450386215   23.860042803   162.6548   2   7   0.0713   0.0374   0.2059  -0.0190  -0.0179   0.0898   0.00    1.1
2023/08/01 08:21:00.000   61.450380899   23.860018209   162.8893   2   7   0.0714   0.0374   0.2064  -0.0191  -0.0188   0.0902   0.00    1.1
2023/08/01 08:21:01.000   61.450376329   23.859992277   163.2036   2   7   0.0835   0.0377   0.3297  -0.0114   0.0324   0.1388   0.00    1.1
2023/08/01 08:21:02.000   61.450372129   23.859966213   163.4760   2   7   0.0787   0.0375   0.2861  -0.0153   0.0209   0.1212   0.00    1.2
2023/08/01 08:21:03.000   61.450367562   23.859940447   163.4973   2   6   0.0764   0.0375   0.2646  -0.0170   0.0114   0.1124   0.00    1.3
2023/08/01 08:21:04.000   61.450363423   23.859914148   163.8052   2   6   0.0752   0.0374   0.2525  -0.0181  -0.0098   0.1075   0.00    1.1
2023/08/01 08:21:06.000   61.450350821   23.859861707   162.3330   1   6   0.0547   0.0075   0.3257   0.0178   0.0437   0.1329   0.00    3.5
2023/08/01 08:21:08.000   61.450349723   23.859809314   167.2143   2   5   0.0805   0.0379   0.3043  -0.0171   0.0178   0.1278   0.00    2.3
2023/08/01 08:21:09.000   61.450360977   23.859785898   177.8470   2   5   0.0782   0.0377   0.2796  -0.0183   0.0035   0.1185   0.00    2.6
2023/08/01 08:21:12.000   61.450324760   23.859725590   163.7048   1   4   0.0174   0.0086   0.0327   0.0058   0.0122   0.0155   0.00    3.7
2023/08/01 08:21:14.000   61.450290303   23.859574155   165.8444   2   6   0.1936   0.1084   0.4654  -0.0619  -0.1098   0.2273   0.00    1.5
2023/08/01 08:21:15.000   61.450283210   23.859541922   166.5969   2   6   0.1896   0.1041   0.4584  -0.0706  -0.1042   0.2295   0.00    1.5
2023/08/01 08:21:16.000   61.450296476   23.859541239   168.4155   2   5   0.2332   0.1485   0.5052   0.0941   0.0828   0.2801   0.00    2.6
2023/08/01 08:21:17.000   61.450291610   23.859516133   168.3104   2   5   0.2332   0.1476   0.5049   0.0939   0.0815   0.2802   0.00    1.2
2023/08/01 08:21:18.000   61.450289060   23.859495436   168.5895   2   6   0.2277   0.1440   0.4892   0.0849   0.0581   0.2697   0.00    1.7
2023/08/01 08:21:22.000   61.450301376   23.859436695   185.2184   2   6   0.2026   0.1023   0.6204  -0.0707  -0.0913   0.2895   0.00    1.0
2023/08/01 08:21:23.000   61.450306027   23.859410087   191.0117   2   5   0.2032   0.1024   0.6347  -0.0659  -0.0702   0.2936   0.00    1.3
2023/08/01 08:21:24.000   61.450283836   23.859391084   181.7899   2   5   0.2067   0.1029   0.6656  -0.0676  -0.0766   0.3062   0.00    1.3
2023/08/01 08:21:25.000   61.450283637   23.859368734   185.7906   2   5   0.2027   0.1029   0.6214  -0.0685  -0.0809   0.2899   0.00    1.0
2023/08/01 08:21:26.000   61.450266512   23.859341271   178.7690   2   7   0.1987   0.1024   0.5801  -0.0712  -0.0906   0.2746   0.00    1.0
2023/08/01 08:21:27.000   61.450260727   23.859316630   178.9441   2   5   0.2010   0.1028   0.6119  -0.0700  -0.0887   0.2840   0.00    1.1
2023/08/01 08:21:28.000   61.450255670   23.859291041   180.1156   2   5   0.1988   0.1025   0.5950  -0.0679  -0.0814   0.2762   0.00    1.0
2023/08/01 08:21:29.000   61.450241333   23.859269413   177.4154   2   6   0.1984   0.1033   0.5832  -0.0708  -0.0916   0.2744   0.00    1.0
2023/08/01 08:21:30.000   61.450235585   23.859249241   176.8773   2   7   0.1976   0.1046   0.5734  -0.0738  -0.1026   0.2714   0.00    1.0
2023/08/01 08:21:31.000   61.450228560   23.859221695   174.7133   2   7   0.1979   0.1027   0.5955  -0.0818  -0.1364   0.2757   0.00    1.3
2023/08/01 08:21:32.000   61.450219196   23.859200568   174.4853   2   6   0.2034   0.1066   0.6213  -0.0887  -0.1475   0.2862   0.00    1.3
2023/08/01 08:21:33.000   61.450210237   23.859180893   173.3698   2   5   0.2061   0.1076   0.6273  -0.0911  -0.1518   0.2910   0.00    1.3
2023/08/01 08:21:34.000   61.450203276   23.859157937   173.3372   2   5   0.2054   0.1076   0.6194  -0.0914  -0.1523   0.2877   0.00    1.2
2023/08/01 08:21:35.000   61.450190657   23.859141196   172.5209   2   6   0.2092   0.1015   0.6145  -0.0897  -0.1374   0.2901   0.00    1.4
2023/08/01 08:21:36.000   61.450183193   23.859118538   171.3273   2   5   0.2081   0.1011   0.6180  -0.0883  -0.1376   0.2878   0.00    1.7
2023/08/01 08:21:39.000   61.450188727   23.859070962   172.9826   2   4   0.3195   0.1204   1.1101  -0.1498  -0.2645   0.5507   0.00    1.1
2023/08/01 08:21:40.000   61.450175710   23.859014495   171.0786   2   4   0.3251   0.1830   1.1009  -0.1816  -0.2137   0.5289   0.00    2.8
2023/08/01 08:21:42.000   61.450170364   23.858970865   176.5864   2   4   0.3001   0.1831   0.9513  -0.1829  -0.2163   0.4573   0.00    1.1
2023/08/01 08:21:43.000   61.450167717   23.858945785   179.7028   2   4   0.3024   0.1805   0.8898  -0.1836  -0.2422   0.4615   0.00    1.4
2023/08/01 08:21:46.000   61.450210649   23.858880201   226.4525   2   4   0.2965   0.1937   0.9994  -0.1818  -0.1386   0.4388   0.00    2.1
2023/08/01 08:21:51.000   61.450256122   23.858792232   243.1511   2   4   0.6663   0.2059   1.5399  -0.0866   0.3059   0.8278   0.00    1.0
2023/08/01 08:21:55.000   61.450203776   23.858694640   243.3029   2   4   0.5516   0.2032   2.0484   0.1032   0.4268   0.7819   0.00    1.1
2023/08/01 08:21:58.000   61.450023068   23.858623253   165.2109   1   4   0.2268   0.0429   1.5543   0.0973   0.2555   0.5931   0.00   80.7
2023/08/01 08:21:59.000   61.450048521   23.858563876   165.9047   2   5   0.3318   0.1852   0.8742   0.1704  -0.2246   0.2652   0.00    1.6
2023/08/01 08:22:00.000   61.450013937   23.858583348   161.4306   2   5   0.3016   0.2255   0.9052   0.1262  -0.2987   0.2354   0.00    1.5
2023/08/01 08:22:02.000   61.449949790   23.858433493   159.8660   2   5   0.2707   0.1468   0.7010  -0.0643  -0.1535   0.2889   0.00    1.0
2023/08/01 08:22:03.000   61.449956286   23.858414129   157.7369   2   5   0.2578   0.1463   0.6568  -0.0825  -0.1592   0.3112   0.00    1.1
2023/08/01 08:22:04.000   61.449950949   23.858390771   156.6793   2   4   0.2602   0.1465   0.6840  -0.0818  -0.1575   0.3216   0.00    1.1
2023/08/01 08:22:06.000   61.449939770   23.858343937   154.9579   2   5   0.2597   0.1443   0.7394  -0.0863  -0.1624   0.3314   0.00    1.3
2023/08/01 08:22:07.000   61.449869570   23.858340753   116.3000   2   6   0.2603   0.1703   0.5029   0.0475  -0.1393   0.2510   0.00    1.2
2023/08/01 08:22:08.000   61.450001714   23.858302532   176.7826   2   5   0.2830   0.1735   0.7184   0.0443  -0.1686   0.3353   0.00    1.0
2023/08/01 08:22:09.000   61.450009296   23.858284601   184.9598   2   5   0.2822   0.1735   0.7076   0.0441  -0.1688   0.3313   0.00    1.0
2023/08/01 08:22:13.000   61.449920795   23.858136428   133.7687   2   5   0.2850   0.1753   0.6864   0.0574  -0.1521   0.3342   0.00    1.2
2023/08/01 08:22:24.000   61.449875774   23.858004344   182.1238   2   5   0.9497   0.5079   2.8370  -0.3698   0.3041   1.4635   0.00    2.0
2023/08/01 08:22:29.000   61.449888902   23.857798495   171.5222   2   5   0.5161   0.3914   1.0686  -0.4480  -0.6427   0.7396   0.00    1.8
2023/08/01 08:22:32.000   61.449830538   23.857680812   150.4292   2   4   0.0451   0.0301   0.1429  -0.0054   0.0164   0.0526   0.00    1.0
2023/08/01 08:22:33.000   61.449825269   23.857655623   150.4925   2   5   0.0446   0.0298   0.1430  -0.0079   0.0162   0.0527   0.00    1.0
2023/08/01 08:22:34.000   61.449819700   23.857631234   150.3128   2   6   0.0437   0.0298   0.1412  -0.0082   0.0156   0.0516   0.00    1.0
2023/08/01 08:22:35.000   61.449836232   23.857602630   167.2120   1   4   0.0367   0.0073   0.2067   0.0121   0.0297   0.0855   0.00    4.8
2023/08/01 08:22:36.000   61.449833472   23.857576644   166.7405   1   5   0.0307   0.0068   0.1721   0.0097   0.0244   0.0709   0.00    4.4
2023/08/01 08:22:37.000   61.449816211   23.857563043   161.4411   1   5   0.0307   0.0061   0.1800   0.0105   0.0262   0.0733   0.00   48.6
2023/08/01 08:22:38.000   61.449807326   23.857538777   160.0449   1   6   0.0231   0.0055   0.1293   0.0076   0.0191   0.0532   0.00   47.7
2023/08/01 08:22:42.000   61.449783806   23.857439460   161.6536   1   5   0.0301   0.0060   0.1763   0.0103   0.0257   0.0718   0.00   56.3
2023/08/01 08:22:45.000   61.449763115   23.857368044   161.8726   1   5   0.0165   0.0049   0.0880   0.0041   0.0113   0.0360   0.00   64.4
2023/08/01 08:22:46.000   61.449757029   23.857344096   162.0003   1   5   0.0183   0.0049   0.1006   0.0054   0.0135   0.0411   0.00   64.3
2023/08/01 08:22:47.000   61.449751013   23.857320270   162.1664   1   5   0.0216   0.0052   0.1219   0.0069   0.0171   0.0497   0.00   64.1
2023/08/01 08:22:48.000   61.449745902   23.857298539   164.1879   2   6   0.0470   0.0296   0.1785  -0.0053   0.0208   0.0690   0.00    1.0
2023/08/01 08:22:49.000   61.449737960   23.857276570   162.6047   1   6   0.0079   0.0038   0.0142  -0.0011  -0.0009   0.0071   0.00   73.7
2023/08/01 08:22:50.000   61.449731178   23.857255725   162.8137   1   7   0.0078   0.0039   0.0140  -0.0014  -0.0002   0.0074   0.00   76.2
2023/08/01 08:22:51.000   61.449723565   23.857234406   162.9380   1   7   0.0078   0.0037   0.0139  -0.0015  -0.0009   0.0075   0.00   77.3
2023/08/01 08:22:52.000   61.449714705   23.857212599   162.7328   1   8   0.0077   0.0042   0.0123  -0.0019   0.0017   0.0067   0.00   72.5
2023/08/01 08:22:53.000   61.449706748   23.857193878   163.1491   1   7   0.0076   0.0030   0.0128   0.0010   0.0016   0.0069   0.00   72.2
2023/08/01 08:22:54.000   61.449696066   23.857174907   163.7883   2   8   0.0374   0.0294   0.0681  -0.0106   0.0065  -0.0073   0.00    1.2
2023/08/01 08:22:55.000   61.449687926   23.857155115   163.2907   1   8   0.0073   0.0029   0.0117   0.0007  -0.0007   0.0068   0.00   81.8
2023/08/01 08:22:56.000   61.449678344   23.857135276   163.2713   1   8   0.0070   0.0028   0.0117  -0.0015   0.0013   0.0069   0.00   80.8
2023/08/01 08:22:57.000   61.449668337   23.857115338   163.2999   1   8   0.0072   0.0024   0.0111  -0.0016  -0.0011   0.0065   0.00   80.6
2023/08/01 08:22:58.000   61.449658216   23.857097128   163.3030   1   8   0.0072   0.0033   0.0111  -0.0017  -0.0016   0.0066   0.00   80.2
2023/08/01 08:22:59.000   61.449647732   23.857079808   163.3218   1   8   0.0067   0.0021   0.0110  -0.0012  -0.0023   0.0068   0.00   79.6
2023/08/01 08:23:00.000   61.449636352   23.857065239   163.3770   1   8   0.0050   0.0024   0.0078  -0.0014  -0.0009   0.0047   0.00    3.2
2023/08/01 08:23:01.000   61.449624603   23.857050296   163.4346   1   8   0.0049   0.0022   0.0078  -0.0014  -0.0011   0.0047   0.00    4.0
2023/08/01 08:23:02.000   61.449613696   23.857034044   163.5187   1   8   0.0050   0.0022   0.0078  -0.0014  -0.0011   0.0047   0.00    4.7
