% program   : RTKPOST ver.2.4.2
% inp file  : C:\Users\vmangr\OneDrive - TUNI.fi\Projects\Project_4_BsC\Shared_documents\Acquisition_Project\Survey\20230414\_Processing\Reference\NMND18410025C_2023-04-14_13-03-45.23O
% inp file  : C:\Users\vmangr\OneDrive - TUNI.fi\Projects\Project_4_BsC\Shared_documents\Acquisition_Project\Survey\20230414\_Processing\Reference\TAUN00FIN_R_20231041000_06H_01S_MO.rnx
% inp file  : C:\Users\vmangr\OneDrive - TUNI.fi\Projects\Project_4_BsC\Shared_documents\Acquisition_Project\Survey\20230414\_Processing\Reference\TAUN00FIN_R_20231041000_06H_MN.rnx
% obs start : 2023/04/14 12:23:09.0 GPST (week2257 476589.0s)
% obs end   : 2023/04/14 13:04:03.0 GPST (week2257 479043.0s)
% pos mode  : kinematic
% freqs     : L1+L2+L5
% solution  : combined
% elev mask : 15.0 deg
% dynamics  : off
% tidecorr  : off
% ionos opt : broadcast
% tropo opt : saastamoinen
% ephemeris : broadcast
% navi sys  : gps glonass galileo qzss sbas
% amb res   : continuous
% amb glo   : on
% val thres : 3.0
% antenna1  :                       ( 0.0000  0.0000  0.0000)
% antenna2  :                       ( 0.0000  0.0000  0.0000)
% ref pos   : 61.450092260   23.856869000   182.4820
%
% (lat/lon/height=WGS84/ellipsoidal,Q=1:fix,2:float,3:sbas,4:dgps,5:single,6:ppp,ns=# of satellites)
%  GPST                  latitude(deg) longitude(deg)  height(m)   Q  ns   sdn(m)   sde(m)   sdu(m)  sdne(m)  sdeu(m)  sdun(m) age(s)  ratio
2023/04/14 12:23:09.000   61.449507464   23.856853275   162.9261   1  18   0.0037   0.0032   0.0087  -0.0012  -0.0014   0.0031   0.00    6.3
2023/04/14 12:23:10.000   61.449507621   23.856853329   162.9233   1  18   0.0038   0.0030   0.0088  -0.0011  -0.0015   0.0030   0.00    6.2
2023/04/14 12:23:11.000   61.449507834   23.856853236   162.9208   1  18   0.0035   0.0027   0.0087  -0.0008  -0.0019   0.0032   0.00    6.6
2023/04/14 12:23:12.000   61.449507714   23.856852873   162.9248   1  18   0.0043   0.0029   0.0088  -0.0017  -0.0021   0.0029   0.00    7.0
2023/04/14 12:23:13.000   61.449507829   23.856852646   162.9218   1  18   0.0038   0.0022   0.0087   0.0004  -0.0013   0.0033   0.00    7.3
2023/04/14 12:23:14.000   61.449507690   23.856853055   162.9216   1  18   0.0031   0.0033   0.0087  -0.0011  -0.0011   0.0033   0.00    7.6
2023/04/14 12:23:15.000   61.449507638   23.856853293   162.9199   1  18   0.0034   0.0032   0.0087   0.0022  -0.0022   0.0032   0.00    7.6
2023/04/14 12:23:16.000   61.449507686   23.856853350   162.9208   1  18   0.0037   0.0038   0.0088   0.0013  -0.0013   0.0033   0.00    7.7
2023/04/14 12:23:17.000   61.449507735   23.856853374   162.9192   1  18   0.0039   0.0042   0.0088  -0.0025   0.0011   0.0024   0.00    7.7
2023/04/14 12:23:18.000   61.449507718   23.856853571   162.9147   1  18   0.0037   0.0046   0.0088  -0.0020   0.0015   0.0033   0.00    7.2
2023/04/14 12:23:19.000   61.449507660   23.856853528   162.9126   1  18   0.0033   0.0031   0.0087  -0.0028  -0.0009   0.0030   0.00    6.9
2023/04/14 12:23:20.000   61.449507618   23.856853522   162.9220   1  18   0.0034   0.0024   0.0087  -0.0019  -0.0020   0.0030   0.00    6.6
2023/04/14 12:23:21.000   61.449507332   23.856853234   162.9264   1  18   0.0036   0.0023   0.0090  -0.0017  -0.0010   0.0033   0.00    6.8
2023/04/14 12:23:22.000   61.449507159   23.856853363   162.9369   1  18   0.0038   0.0032   0.0090  -0.0012  -0.0015   0.0033   0.00    7.1
2023/04/14 12:23:23.000   61.449506502   23.856848798   162.9618   2  18   0.0092   0.0100   0.0191  -0.0025  -0.0024  -0.0076   0.00    1.3
2023/04/14 12:23:24.000   61.449506824   23.856853176   162.9521   1  17   0.0026   0.0021   0.0065   0.0012  -0.0018   0.0028   0.00    6.5
2023/04/14 12:23:25.000   61.449506817   23.856853347   162.9548   1  17   0.0028   0.0013   0.0066   0.0009  -0.0016   0.0029   0.00    6.6
2023/04/14 12:23:26.000   61.449506769   23.856852998   162.9718   1  17   0.0030   0.0028   0.0066  -0.0017  -0.0008   0.0024   0.00    6.6
2023/04/14 12:23:27.000   61.449506831   23.856853320   162.9714   1  18   0.0034   0.0032   0.0066  -0.0012  -0.0010   0.0025   0.00    6.8
2023/04/14 12:23:28.000   61.449506910   23.856853837   162.9638   1  18   0.0026   0.0026   0.0066  -0.0014  -0.0009   0.0027   0.00    7.1
2023/04/14 12:23:29.000   61.449505742   23.856851604   162.9814   1  18   0.0028   0.0021   0.0065  -0.0004  -0.0010   0.0024   0.00    7.3
2023/04/14 12:23:30.000   61.449505601   23.856850862   162.9974   1  18   0.0024   0.0018   0.0064  -0.0003  -0.0012   0.0028   0.00    7.3
2023/04/14 12:23:31.000   61.449506774   23.856853688   162.9405   1  18   0.0039   0.0041   0.0088  -0.0022  -0.0012   0.0031   0.00    9.2
2023/04/14 12:23:32.000   61.449506354   23.856852546   162.9828   1  18   0.0030   0.0017   0.0089  -0.0021  -0.0013   0.0036   0.00    9.1
2023/04/14 12:23:33.000   61.449506054   23.856852081   162.9870   1  18   0.0038   0.0023   0.0088  -0.0014  -0.0017   0.0030   0.00    8.3
2023/04/14 12:23:34.000   61.449506153   23.856852185   162.9947   1  18   0.0038   0.0036   0.0087  -0.0013  -0.0020   0.0031   0.00    8.3
2023/04/14 12:23:35.000   61.449506208   23.856852354   162.9779   1  18   0.0030   0.0018   0.0087   0.0008  -0.0018   0.0035   0.00    8.2
2023/04/14 12:23:36.000   61.449505004   23.856849553   162.9910   1  18   0.0022   0.0022   0.0062   0.0014  -0.0016   0.0021   0.00    3.0
2023/04/14 12:23:37.000   61.449505281   23.856847688   162.9829   1  18   0.0029   0.0022   0.0062  -0.0015   0.0004   0.0023   0.00    3.4
2023/04/14 12:23:38.000   61.449508793   23.856847200   163.3121   1  18   0.0025   0.0025   0.0061  -0.0016  -0.0006   0.0022   0.00    3.7
2023/04/14 12:23:39.000   61.449508783   23.856856889   163.6300   1  18   0.0024   0.0023   0.0062  -0.0003  -0.0012   0.0023   0.00    4.1
2023/04/14 12:23:40.000   61.449507336   23.856860111   163.5930   1  18   0.0011   0.0000   0.0060   0.0022  -0.0022   0.0028   0.00    4.5
2023/04/14 12:23:41.000   61.449508043   23.856861854   163.5751   1  18   0.0027   0.0024   0.0062  -0.0014  -0.0009   0.0022   0.00    4.8
2023/04/14 12:23:42.000   61.449504487   23.856863521   163.5388   1  18   0.0028   0.0028   0.0062  -0.0003  -0.0011   0.0021   0.00    5.1
2023/04/14 12:23:43.000   61.449504211   23.856857690   163.6376   1  18   0.0025   0.0029   0.0062  -0.0006  -0.0009   0.0025   0.00    5.4
2023/04/14 12:23:44.000   61.449504594   23.856860070   163.6496   1  18   0.0029   0.0024   0.0062   0.0017  -0.0016   0.0021   0.00    5.6
2023/04/14 12:23:45.000   61.449504490   23.856858488   163.6791   1  18   0.0025   0.0022   0.0062  -0.0002  -0.0015   0.0021   0.00    5.9
2023/04/14 12:23:46.000   61.449503845   23.856858586   163.6696   1  18   0.0026   0.0021   0.0062  -0.0011  -0.0015   0.0021   0.00    6.1
2023/04/14 12:23:47.000   61.449503369   23.856858398   163.6592   1  18   0.0027   0.0028   0.0062  -0.0011  -0.0010   0.0020   0.00    6.4
2023/04/14 12:23:48.000   61.449503442   23.856858110   163.6568   1  18   0.0023   0.0017   0.0062  -0.0010  -0.0009   0.0023   0.00    6.6
2023/04/14 12:23:49.000   61.449503726   23.856857692   163.6603   1  18   0.0025   0.0009   0.0061   0.0008  -0.0016   0.0022   0.00    6.8
2023/04/14 12:23:50.000   61.449503875   23.856857463   163.6643   1  18   0.0027   0.0025   0.0062   0.0001  -0.0010   0.0020   0.00    7.0
2023/04/14 12:23:51.000   61.449503782   23.856857514   163.6609   1  18   0.0029   0.0028   0.0062   0.0010  -0.0008   0.0020   0.00    7.1
2023/04/14 12:23:52.000   61.449503658   23.856857964   163.6626   1  18   0.0023   0.0000   0.0061   0.0010  -0.0017   0.0025   0.00    7.3
2023/04/14 12:23:53.000   61.449503468   23.856858083   163.6566   1  18   0.0021   0.0020   0.0062   0.0005  -0.0013   0.0023   0.00    7.5
2023/04/14 12:23:54.000   61.449503533   23.856858150   163.6585   1  18   0.0024   0.0019   0.0061   0.0009  -0.0014   0.0024   0.00    7.6
2023/04/14 12:23:55.000   61.449503601   23.856857931   163.6560   1  18   0.0027   0.0017   0.0062  -0.0011  -0.0011   0.0021   0.00    7.8
2023/04/14 12:23:56.000   61.449503696   23.856857781   163.6592   1  18   0.0013   0.0023   0.0061   0.0008  -0.0006   0.0022   0.00    7.9
2023/04/14 12:23:57.000   61.449503721   23.856857561   163.6576   1  18   0.0020   0.0021   0.0062  -0.0009  -0.0011   0.0021   0.00    8.0
2023/04/14 12:23:58.000   61.449503656   23.856857449   163.6553   1  18   0.0025   0.0021   0.0062   0.0006  -0.0013   0.0024   0.00    8.1
2023/04/14 12:23:59.000   61.449503803   23.856857406   163.6609   1  18   0.0015   0.0023   0.0062   0.0019  -0.0016   0.0026   0.00    8.2
2023/04/14 12:24:00.000   61.449503899   23.856857405   163.6608   1  18   0.0027   0.0014   0.0062  -0.0008  -0.0013   0.0021   0.00    8.3
2023/04/14 12:24:01.000   61.449503892   23.856857215   163.6630   1  18   0.0024   0.0021   0.0062  -0.0005  -0.0009   0.0019   0.00    8.3
2023/04/14 12:24:02.000   61.449503762   23.856857141   163.6583   1  18   0.0028   0.0020   0.0062   0.0011  -0.0015   0.0021   0.00    8.3
2023/04/14 12:24:03.000   61.449503787   23.856857056   163.6569   1  18   0.0026   0.0025   0.0061  -0.0015   0.0004   0.0021   0.00    8.3
2023/04/14 12:24:04.000   61.449503998   23.856856830   163.6625   1  18   0.0023   0.0019   0.0062   0.0016  -0.0015   0.0023   0.00    8.3
2023/04/14 12:24:05.000   61.449504113   23.856856827   163.6669   1  18   0.0025   0.0000   0.0057  -0.0006   0.0015   0.0026   0.00    8.3
2023/04/14 12:24:06.000   61.449504221   23.856857481   163.6642   1  18   0.0025   0.0024   0.0062  -0.0007  -0.0010   0.0020   0.00    8.3
2023/04/14 12:24:07.000   61.449503848   23.856857686   163.6583   1  18   0.0026   0.0020   0.0062  -0.0011  -0.0008   0.0023   0.00    8.3
2023/04/14 12:24:08.000   61.449503893   23.856857830   163.6546   1  18   0.0024   0.0018   0.0061  -0.0010  -0.0010   0.0025   0.00    8.3
2023/04/14 12:24:09.000   61.449504038   23.856857781   163.6595   1  18   0.0023   0.0022   0.0061  -0.0015  -0.0007   0.0023   0.00    8.3
2023/04/14 12:24:10.000   61.449503934   23.856857321   163.6561   1  18   0.0021   0.0020   0.0062   0.0013  -0.0012   0.0024   0.00    8.3
2023/04/14 12:24:11.000   61.449504016   23.856857299   163.6583   1  18   0.0022   0.0019   0.0061   0.0012  -0.0015   0.0024   0.00    8.3
2023/04/14 12:24:12.000   61.449504410   23.856857528   163.6700   1  18   0.0024   0.0022   0.0061  -0.0007  -0.0008   0.0024   0.00    8.3
2023/04/14 12:24:13.000   61.449504791   23.856858553   163.6679   1  18   0.0024   0.0028   0.0062  -0.0018   0.0004   0.0021   0.00    8.3
2023/04/14 12:24:14.000   61.449505128   23.856858070   163.6698   1  18   0.0027   0.0022   0.0062  -0.0013  -0.0008   0.0020   0.00    8.3
2023/04/14 12:24:15.000   61.449505035   23.856857685   163.6683   1  18   0.0023   0.0019   0.0061   0.0004  -0.0013   0.0023   0.00    8.4
2023/04/14 12:24:16.000   61.449504645   23.856858186   163.6618   1  18   0.0020   0.0017   0.0061   0.0005  -0.0013   0.0025   0.00    8.4
2023/04/14 12:24:17.000   61.449504404   23.856857199   163.6549   1  18   0.0027   0.0022   0.0062  -0.0009  -0.0011   0.0021   0.00    8.4
2023/04/14 12:24:18.000   61.449505271   23.856859206   163.6730   1  18   0.0028   0.0025   0.0062  -0.0013  -0.0009   0.0021   0.00    8.4
2023/04/14 12:24:19.000   61.449505222   23.856859502   163.6753   1  18   0.0025   0.0022   0.0062  -0.0009  -0.0009   0.0025   0.00    8.4
2023/04/14 12:24:20.000   61.449505338   23.856859191   163.6768   1  18   0.0026   0.0023   0.0062  -0.0014  -0.0006   0.0023   0.00    8.5
2023/04/14 12:24:21.000   61.449505398   23.856858847   163.6738   1  18   0.0030   0.0012   0.0062  -0.0018  -0.0011   0.0020   0.00    8.5
2023/04/14 12:24:22.000   61.449505114   23.856859083   163.6674   1  18   0.0028   0.0026   0.0062  -0.0013  -0.0006   0.0023   0.00    8.6
2023/04/14 12:24:23.000   61.449504990   23.856859010   163.6647   1  18   0.0022   0.0016   0.0062  -0.0005  -0.0011   0.0025   0.00    8.6
2023/04/14 12:24:24.000   61.449504815   23.856859130   163.6643   1  18   0.0025   0.0021   0.0061  -0.0016  -0.0011   0.0024   0.00    8.6
2023/04/14 12:24:25.000   61.449504687   23.856859265   163.6645   1  18   0.0018   0.0011   0.0061   0.0019  -0.0019   0.0025   0.00    8.7
2023/04/14 12:24:26.000   61.449504418   23.856858763   163.6621   1  18   0.0028   0.0027   0.0062  -0.0015   0.0003   0.0022   0.00    8.7
2023/04/14 12:24:27.000   61.449504245   23.856859567   163.6600   1  18   0.0030   0.0024   0.0062  -0.0010  -0.0010   0.0019   0.00    8.8
2023/04/14 12:24:28.000   61.449504483   23.856860125   163.6642   1  18   0.0023   0.0019   0.0062   0.0011  -0.0014   0.0024   0.00    8.8
2023/04/14 12:24:29.000   61.449504609   23.856859499   163.6661   1  17   0.0031   0.0026   0.0067  -0.0013  -0.0015   0.0028   0.00    9.1
2023/04/14 12:24:30.000   61.449504582   23.856859617   163.6645   1  18   0.0024   0.0023   0.0062  -0.0011  -0.0010   0.0024   0.00    8.9
2023/04/14 12:24:31.000   61.449504738   23.856859746   163.6687   1  18   0.0030   0.0027   0.0062  -0.0018   0.0010   0.0023   0.00    8.9
2023/04/14 12:24:32.000   61.449504586   23.856860088   163.6664   1  18   0.0025   0.0020   0.0061  -0.0007  -0.0009   0.0023   0.00    9.0
2023/04/14 12:24:33.000   61.449504575   23.856860046   163.6656   1  18   0.0022   0.0021   0.0062  -0.0010  -0.0007   0.0024   0.00    9.0
2023/04/14 12:24:34.000   61.449504627   23.856859987   163.6656   1  18   0.0023   0.0022   0.0062  -0.0013  -0.0008   0.0023   0.00    9.0
2023/04/14 12:24:35.000   61.449504820   23.856860354   163.6627   1  18   0.0024   0.0023   0.0062   0.0005  -0.0009   0.0023   0.00    9.0
2023/04/14 12:24:36.000   61.449505215   23.856860891   163.6684   1  18   0.0025   0.0025   0.0061  -0.0015  -0.0008   0.0021   0.00    9.0
2023/04/14 12:24:37.000   61.449506023   23.856861797   163.6704   1  18   0.0022   0.0019   0.0062   0.0002  -0.0008   0.0023   0.00    9.0
2023/04/14 12:24:38.000   61.449505906   23.856861111   163.6641   1  18   0.0022   0.0017   0.0062   0.0009  -0.0013   0.0022   0.00    9.1
2023/04/14 12:24:39.000   61.449505231   23.856867421   163.6175   1  18   0.0025   0.0023   0.0062  -0.0010  -0.0009   0.0018   0.00    9.1
2023/04/14 12:24:40.000   61.449496789   23.856874078   163.6694   1  18   0.0022   0.0026   0.0061   0.0007  -0.0012   0.0024   0.00    9.2
2023/04/14 12:24:41.000   61.449487947   23.856871317   163.6856   1  18   0.0028   0.0024   0.0062  -0.0008  -0.0009   0.0019   0.00    9.2
2023/04/14 12:24:42.000   61.449477797   23.856866793   163.6753   1  18   0.0022   0.0014   0.0061  -0.0014  -0.0009   0.0024   0.00    9.2
2023/04/14 12:24:43.000   61.449466636   23.856863562   163.6312   1  18   0.0023   0.0029   0.0062   0.0003  -0.0014   0.0021   0.00    9.3
2023/04/14 12:24:44.000   61.449454417   23.856865316   163.6000   1  18   0.0022   0.0013   0.0061  -0.0018  -0.0003   0.0023   0.00    9.3
2023/04/14 12:24:45.000   61.449443089   23.856870544   163.6149   1  18   0.0027   0.0027   0.0062  -0.0007  -0.0011   0.0022   0.00    9.3
2023/04/14 12:24:46.000   61.449432126   23.856872315   163.6456   1  18   0.0025   0.0008   0.0062   0.0013  -0.0017   0.0025   0.00    9.3
2023/04/14 12:24:47.000   61.449420660   23.856872077   163.6416   1  18   0.0026   0.0007   0.0062  -0.0015  -0.0008   0.0024   0.00    9.4
2023/04/14 12:24:48.000   61.449409095   23.856873965   163.6483   1  18   0.0015   0.0000   0.0061  -0.0019  -0.0010   0.0026   0.00    9.4
2023/04/14 12:24:49.000   61.449397986   23.856877732   163.6470   1  18   0.0021   0.0009   0.0062  -0.0011  -0.0012   0.0024   0.00    9.5
2023/04/14 12:24:50.000   61.449386683   23.856891052   163.6319   1  18   0.0025   0.0029   0.0062  -0.0011   0.0007   0.0024   0.00    9.5
2023/04/14 12:24:51.000   61.449376362   23.856899030   163.7176   2  19   0.0097   0.0100   0.0203  -0.0034  -0.0032  -0.0069   0.00    1.1
2023/04/14 12:24:52.000   61.449367694   23.856913943   163.7410   2  19   0.0094   0.0098   0.0202  -0.0037  -0.0030  -0.0067   0.00    1.2
2023/04/14 12:24:53.000   61.449359803   23.856928871   163.7692   2  19   0.0096   0.0098   0.0203  -0.0027  -0.0034  -0.0066   0.00    1.2
2023/04/14 12:24:54.000   61.449351626   23.856945645   163.7889   2  19   0.0096   0.0104   0.0203  -0.0025  -0.0035  -0.0068   0.00    1.3
2023/04/14 12:24:55.000   61.449342205   23.856960056   163.8058   2  19   0.0098   0.0102   0.0203  -0.0040  -0.0031  -0.0068   0.00    1.1
2023/04/14 12:24:56.000   61.449332444   23.856974873   163.8478   2  19   0.0095   0.0095   0.0203  -0.0032  -0.0032  -0.0066   0.00    1.2
2023/04/14 12:24:57.000   61.449323750   23.856993092   163.8761   2  19   0.0095   0.0100   0.0203  -0.0032  -0.0034  -0.0067   0.00    1.1
2023/04/14 12:24:58.000   61.449313419   23.857008087   163.9062   2  19   0.0096   0.0100   0.0203  -0.0039  -0.0030  -0.0068   0.00    1.2
2023/04/14 12:24:59.000   61.449303164   23.857021867   163.9668   2  19   0.0096   0.0100   0.0203  -0.0034  -0.0033  -0.0067   0.00    1.2
2023/04/14 12:25:00.000   61.449293714   23.857038048   163.9869   2  19   0.0095   0.0099   0.0203  -0.0038  -0.0030  -0.0066   0.00    1.3
2023/04/14 12:25:01.000   61.449284722   23.857054257   163.9855   1  19   0.0035   0.0020   0.0086  -0.0012  -0.0021   0.0035   0.00   10.3
2023/04/14 12:25:02.000   61.449274731   23.857067102   163.9975   1  18   0.0034   0.0042   0.0087  -0.0008   0.0012   0.0036   0.00   10.3
2023/04/14 12:25:03.000   61.449265470   23.857081085   164.0470   1  19   0.0036   0.0033   0.0088  -0.0004  -0.0016   0.0032   0.00   10.4
2023/04/14 12:25:04.000   61.449257636   23.857096941   164.0339   1  19   0.0038   0.0035   0.0088  -0.0018  -0.0009   0.0034   0.00   10.5
2023/04/14 12:25:05.000   61.449250900   23.857109803   164.1864   2  19   0.0096   0.0100   0.0204  -0.0036  -0.0030  -0.0066   0.00    1.1
2023/04/14 12:25:06.000   61.449242607   23.857125220   164.2077   2  19   0.0096   0.0097   0.0204  -0.0035  -0.0032  -0.0066   0.00    1.0
2023/04/14 12:25:07.000   61.449232767   23.857140276   164.1884   2  19   0.0096   0.0098   0.0204  -0.0042  -0.0028  -0.0065   0.00    1.1
2023/04/14 12:25:08.000   61.449222217   23.857152504   164.2182   2  19   0.0095   0.0100   0.0204  -0.0038  -0.0028  -0.0064   0.00    1.2
2023/04/14 12:25:09.000   61.449213020   23.857160866   164.2438   2  18   0.0096   0.0102   0.0206  -0.0045  -0.0030  -0.0061   0.00    1.1
2023/04/14 12:25:10.000   61.449202912   23.857165511   164.2445   2  18   0.0099   0.0102   0.0206  -0.0038  -0.0033  -0.0063   0.00    1.1
2023/04/14 12:25:11.000   61.449190858   23.857172272   164.2120   2  18   0.0098   0.0101   0.0206  -0.0038  -0.0033  -0.0061   0.00    1.1
2023/04/14 12:25:12.000   61.449177820   23.857187737   164.2089   1  18   0.0033   0.0022   0.0087  -0.0012  -0.0008   0.0035   0.00   11.1
2023/04/14 12:25:13.000   61.449161663   23.857193440   164.1477   1  18   0.0043   0.0031   0.0088   0.0019  -0.0025   0.0031   0.00   11.1
2023/04/14 12:25:14.000   61.449147898   23.857197018   164.1726   1  18   0.0035   0.0039   0.0088   0.0014  -0.0016   0.0033   0.00   11.2
2023/04/14 12:25:15.000   61.449135213   23.857194688   164.2000   1  18   0.0038   0.0036   0.0094  -0.0013  -0.0022   0.0045   0.00   11.7
2023/04/14 12:25:16.000   61.449123590   23.857192720   164.2142   1  17   0.0040   0.0037   0.0089  -0.0005  -0.0007   0.0030   0.00   11.6
2023/04/14 12:25:17.000   61.449113721   23.857189981   164.2609   1  17   0.0039   0.0028   0.0093  -0.0015   0.0011   0.0024   0.00   12.9
2023/04/14 12:25:18.000   61.449102891   23.857184966   164.6434   1  17   0.0046   0.0033   0.0091  -0.0024   0.0009   0.0018   0.00    6.2
2023/04/14 12:25:19.000   61.449095619   23.857174656   164.5137   1  18   0.0045   0.0036   0.0096  -0.0015  -0.0019   0.0032   0.00    3.3
2023/04/14 12:25:20.000   61.449087007   23.857154152   164.0540   2  18   0.0099   0.0102   0.0209  -0.0036  -0.0033  -0.0067   0.00    1.3
2023/04/14 12:25:21.000   61.449077749   23.857132665   164.0700   2  18   0.0097   0.0100   0.0207  -0.0036  -0.0030  -0.0063   0.00    1.6
2023/04/14 12:25:22.000   61.449070906   23.857108779   164.0668   2  18   0.0097   0.0098   0.0207  -0.0032  -0.0034  -0.0063   0.00    1.9
2023/04/14 12:25:23.000   61.449062490   23.857087437   164.0339   2  17   0.0099   0.0102   0.0210  -0.0036  -0.0032  -0.0066   0.00    2.0
2023/04/14 12:25:24.000   61.449055507   23.857073138   163.9675   1  17   0.0035   0.0019   0.0095  -0.0016  -0.0015   0.0038   0.00    3.8
2023/04/14 12:25:25.000   61.449050732   23.857045060   164.1348   2  19   0.0099   0.0102   0.0208  -0.0035  -0.0030  -0.0064   0.00    1.3
2023/04/14 12:25:26.000   61.449044631   23.857022318   163.9708   2  18   0.0100   0.0099   0.0208  -0.0031  -0.0036  -0.0064   0.00    1.6
2023/04/14 12:25:27.000   61.449038462   23.857000006   163.9438   2  18   0.0096   0.0100   0.0207  -0.0035  -0.0034  -0.0063   0.00    1.1
2023/04/14 12:25:28.000   61.449033052   23.856977532   163.9367   2  17   0.0098   0.0100   0.0209  -0.0034  -0.0033  -0.0065   0.00    1.4
2023/04/14 12:25:29.000   61.449027659   23.856953800   163.8663   2  18   0.0098   0.0100   0.0211  -0.0037  -0.0034  -0.0067   0.00    2.0
2023/04/14 12:25:30.000   61.449022333   23.856931383   163.9549   2  16   0.0100   0.0100   0.0209  -0.0039  -0.0035  -0.0065   0.00    1.1
2023/04/14 12:25:31.000   61.449018054   23.856907644   163.9498   2  18   0.0096   0.0100   0.0207  -0.0034  -0.0034  -0.0060   0.00    1.0
2023/04/14 12:25:32.000   61.449014587   23.856885045   163.9932   2  18   0.0098   0.0099   0.0207  -0.0033  -0.0038  -0.0063   0.00    1.1
2023/04/14 12:25:33.000   61.449011074   23.856860845   163.9787   2  17   0.0099   0.0103   0.0208  -0.0038  -0.0033  -0.0064   0.00    1.2
2023/04/14 12:25:34.000   61.449007656   23.856837322   163.9885   2  18   0.0097   0.0098   0.0208  -0.0035  -0.0035  -0.0062   0.00    1.2
2023/04/14 12:25:35.000   61.449001643   23.856815947   163.9926   2  16   0.0101   0.0099   0.0210  -0.0040  -0.0031  -0.0066   0.00    1.4
2023/04/14 12:25:36.000   61.448996480   23.856794752   164.0034   2  17   0.0099   0.0101   0.0209  -0.0029  -0.0039  -0.0064   0.00    1.2
2023/04/14 12:25:37.000   61.448991295   23.856772971   164.0569   2  18   0.0099   0.0101   0.0209  -0.0034  -0.0036  -0.0063   0.00    1.5
2023/04/14 12:25:38.000   61.448988041   23.856750964   164.0797   2  18   0.0097   0.0101   0.0208  -0.0037  -0.0033  -0.0063   0.00    1.4
2023/04/14 12:25:39.000   61.448984117   23.856728881   164.0692   2  18   0.0099   0.0100   0.0209  -0.0039  -0.0033  -0.0066   0.00    1.6
2023/04/14 12:25:40.000   61.448978820   23.856709126   164.1386   2  18   0.0101   0.0102   0.0211  -0.0042  -0.0027  -0.0067   0.00    2.2
2023/04/14 12:25:41.000   61.448973439   23.856688646   164.1261   2  18   0.0100   0.0100   0.0212  -0.0044  -0.0024  -0.0069   0.00    1.2
2023/04/14 12:25:42.000   61.448970105   23.856666946   164.1515   2  18   0.0098   0.0099   0.0209  -0.0042  -0.0029  -0.0064   0.00    1.3
2023/04/14 12:25:43.000   61.448965732   23.856646281   164.1798   2  18   0.0099   0.0103   0.0210  -0.0041  -0.0026  -0.0066   0.00    1.1
2023/04/14 12:25:44.000   61.448961848   23.856624352   164.1834   2  18   0.0099   0.0100   0.0206  -0.0038  -0.0035  -0.0061   0.00    1.1
2023/04/14 12:25:45.000   61.448957013   23.856603749   164.1216   2  18   0.0099   0.0101   0.0207  -0.0031  -0.0037  -0.0060   0.00    1.2
2023/04/14 12:25:46.000   61.448951450   23.856582955   164.0879   2  16   0.0098   0.0100   0.0208  -0.0035  -0.0038  -0.0061   0.00    1.3
2023/04/14 12:25:47.000   61.448945505   23.856561353   164.0561   2  18   0.0099   0.0102   0.0209  -0.0039  -0.0034  -0.0063   0.00    1.4
2023/04/14 12:25:48.000   61.448939669   23.856539990   164.0791   2  17   0.0099   0.0102   0.0208  -0.0038  -0.0036  -0.0062   0.00    1.1
2023/04/14 12:25:49.000   61.448935110   23.856518343   163.9160   2  18   0.0100   0.0101   0.0209  -0.0041  -0.0032  -0.0063   0.00    1.0
2023/04/14 12:25:50.000   61.448929312   23.856495851   164.0253   2  18   0.0099   0.0102   0.0208  -0.0035  -0.0037  -0.0060   0.00    1.3
2023/04/14 12:25:51.000   61.448922328   23.856476315   163.9989   2  18   0.0099   0.0101   0.0208  -0.0037  -0.0036  -0.0061   0.00    1.6
2023/04/14 12:25:52.000   61.448916933   23.856452982   163.9785   2  17   0.0099   0.0102   0.0208  -0.0035  -0.0036  -0.0061   0.00    1.8
2023/04/14 12:25:53.000   61.448911789   23.856429495   163.9634   2  16   0.0099   0.0098   0.0209  -0.0035  -0.0036  -0.0063   0.00    2.1
2023/04/14 12:25:54.000   61.448906566   23.856407976   163.9940   2  17   0.0100   0.0099   0.0209  -0.0041  -0.0035  -0.0064   0.00    1.2
2023/04/14 12:25:55.000   61.448901073   23.856384493   163.9376   2  18   0.0100   0.0100   0.0209  -0.0038  -0.0034  -0.0062   0.00    1.1
2023/04/14 12:25:56.000   61.448895618   23.856363352   163.9508   2  18   0.0096   0.0098   0.0207  -0.0033  -0.0040  -0.0058   0.00    1.0
2023/04/14 12:25:57.000   61.448890750   23.856340664   163.8268   2  18   0.0097   0.0099   0.0206  -0.0036  -0.0035  -0.0058   0.00    1.2
2023/04/14 12:25:58.000   61.448888154   23.856316653   163.9052   2  18   0.0100   0.0100   0.0206  -0.0039  -0.0033  -0.0059   0.00    1.1
2023/04/14 12:25:59.000   61.448884475   23.856294533   163.9939   2  18   0.0102   0.0099   0.0210  -0.0041  -0.0037  -0.0053   0.00    1.1
2023/04/14 12:26:00.000   61.448879312   23.856273722   163.9537   2  18   0.0100   0.0098   0.0207  -0.0037  -0.0037  -0.0061   0.00    1.1
2023/04/14 12:26:01.000   61.448874987   23.856250556   163.9398   2  18   0.0099   0.0099   0.0206  -0.0039  -0.0032  -0.0058   0.00    1.1
2023/04/14 12:26:02.000   61.448871155   23.856228314   163.9313   2  18   0.0099   0.0100   0.0206  -0.0037  -0.0032  -0.0058   0.00    1.2
2023/04/14 12:26:03.000   61.448866027   23.856207931   163.9427   2  18   0.0098   0.0101   0.0206  -0.0031  -0.0035  -0.0058   0.00    1.3
2023/04/14 12:26:04.000   61.448861269   23.856187317   163.9423   2  18   0.0099   0.0103   0.0206  -0.0037  -0.0034  -0.0059   0.00    1.4
2023/04/14 12:26:05.000   61.448855183   23.856165871   163.9232   2  18   0.0099   0.0102   0.0207  -0.0038  -0.0032  -0.0059   0.00    1.5
2023/04/14 12:26:06.000   61.448850419   23.856145595   163.9589   2  17   0.0098   0.0100   0.0208  -0.0036  -0.0034  -0.0061   0.00    1.5
2023/04/14 12:26:07.000   61.448844846   23.856125855   163.9563   2  17   0.0099   0.0099   0.0209  -0.0034  -0.0038  -0.0062   0.00    1.1
2023/04/14 12:26:08.000   61.448838829   23.856105816   163.9712   2  18   0.0099   0.0100   0.0208  -0.0038  -0.0035  -0.0061   0.00    1.1
2023/04/14 12:26:09.000   61.448833610   23.856084609   163.9769   2  17   0.0100   0.0100   0.0207  -0.0039  -0.0033  -0.0059   0.00    2.0
2023/04/14 12:26:10.000   61.448828596   23.856065082   163.9791   2  16   0.0099   0.0100   0.0207  -0.0040  -0.0031  -0.0058   0.00    2.6
2023/04/14 12:26:11.000   61.448823524   23.856044280   163.9974   2  17   0.0101   0.0100   0.0207  -0.0043  -0.0031  -0.0060   0.00    1.2
2023/04/14 12:26:12.000   61.448820212   23.856024421   164.0607   2  18   0.0099   0.0098   0.0208  -0.0039  -0.0034  -0.0060   0.00    1.3
2023/04/14 12:26:13.000   61.448816064   23.856003591   164.1076   2  18   0.0099   0.0101   0.0208  -0.0040  -0.0033  -0.0061   0.00    1.1
2023/04/14 12:26:14.000   61.448812011   23.855983968   164.3065   2  18   0.0099   0.0099   0.0207  -0.0038  -0.0035  -0.0060   0.00    1.0
2023/04/14 12:26:15.000   61.448806520   23.855964208   164.1518   2  16   0.0100   0.0101   0.0207  -0.0037  -0.0036  -0.0059   0.00    1.1
2023/04/14 12:26:16.000   61.448801915   23.855943051   164.2524   2  19   0.0100   0.0099   0.0207  -0.0042  -0.0035  -0.0059   0.00    1.1
2023/04/14 12:26:17.000   61.448798530   23.855921665   164.1580   2  19   0.0100   0.0100   0.0206  -0.0038  -0.0035  -0.0059   0.00    1.1
2023/04/14 12:26:18.000   61.448792951   23.855902347   164.1285   2  20   0.0100   0.0102   0.0207  -0.0037  -0.0035  -0.0058   0.00    1.1
2023/04/14 12:26:19.000   61.448786007   23.855884459   164.1613   2  19   0.0099   0.0102   0.0207  -0.0039  -0.0036  -0.0057   0.00    1.3
2023/04/14 12:26:20.000   61.448779665   23.855866084   164.1362   2  19   0.0100   0.0100   0.0207  -0.0037  -0.0033  -0.0059   0.00    1.7
2023/04/14 12:26:21.000   61.448773006   23.855847027   164.2132   2  19   0.0099   0.0102   0.0207  -0.0038  -0.0030  -0.0060   0.00    1.1
2023/04/14 12:26:22.000   61.448765732   23.855828785   164.2743   2  18   0.0099   0.0100   0.0207  -0.0039  -0.0035  -0.0060   0.00    1.3
2023/04/14 12:26:23.000   61.448759323   23.855810286   164.3699   2  21   0.0098   0.0101   0.0205  -0.0039  -0.0032  -0.0060   0.00    1.1
2023/04/14 12:26:24.000   61.448753422   23.855791727   164.3321   2  18   0.0099   0.0098   0.0207  -0.0038  -0.0031  -0.0062   0.00    1.2
2023/04/14 12:26:25.000   61.448748091   23.855772499   164.2784   2  18   0.0098   0.0102   0.0205  -0.0038  -0.0031  -0.0059   0.00    1.2
2023/04/14 12:26:26.000   61.448742149   23.855755410   164.2820   2  19   0.0099   0.0101   0.0205  -0.0035  -0.0034  -0.0057   0.00    1.3
2023/04/14 12:26:27.000   61.448736049   23.855737304   164.3340   2  20   0.0100   0.0103   0.0205  -0.0036  -0.0032  -0.0058   0.00    1.1
2023/04/14 12:26:28.000   61.448733980   23.855729637   164.4362   2  19   0.0099   0.0100   0.0204  -0.0038  -0.0032  -0.0057   0.00    1.1
2023/04/14 12:26:29.000   61.448734269   23.855727462   164.4312   2  19   0.0099   0.0101   0.0205  -0.0041  -0.0029  -0.0058   0.00    1.1
2023/04/14 12:26:30.000   61.448735231   23.855727392   164.4480   2  18   0.0098   0.0100   0.0204  -0.0038  -0.0032  -0.0056   0.00    1.3
2023/04/14 12:26:31.000   61.448733181   23.855722317   164.4586   2  19   0.0099   0.0099   0.0204  -0.0040  -0.0033  -0.0058   0.00    1.2
2023/04/14 12:26:32.000   61.448725274   23.855701088   164.4544   2  18   0.0099   0.0099   0.0205  -0.0034  -0.0037  -0.0058   0.00    1.4
2023/04/14 12:26:33.000   61.448715386   23.855686313   164.4693   2  19   0.0098   0.0098   0.0204  -0.0032  -0.0037  -0.0057   0.00    1.6
2023/04/14 12:26:34.000   61.448706354   23.855668595   164.5760   2  20   0.0100   0.0102   0.0205  -0.0035  -0.0032  -0.0060   0.00    1.9
2023/04/14 12:26:35.000   61.448699699   23.855652889   164.6074   1  19   0.0037   0.0033   0.0097  -0.0014  -0.0018   0.0031   0.00    3.0
2023/04/14 12:26:36.000   61.448692879   23.855632158   164.6328   1  19   0.0045   0.0043   0.0097  -0.0013  -0.0020   0.0027   0.00    3.8
2023/04/14 12:26:37.000   61.448684594   23.855608326   164.7082   2  19   0.0099   0.0101   0.0204  -0.0037  -0.0030  -0.0058   0.00    1.1
2023/04/14 12:26:38.000   61.448677588   23.855590334   164.7334   2  19   0.0098   0.0101   0.0203  -0.0033  -0.0035  -0.0059   0.00    1.3
2023/04/14 12:26:39.000   61.448670734   23.855568689   164.8153   2  19   0.0100   0.0100   0.0202  -0.0037  -0.0030  -0.0059   0.00    1.2
2023/04/14 12:26:40.000   61.448665366   23.855548514   164.8678   2  19   0.0099   0.0104   0.0202  -0.0040  -0.0025  -0.0058   0.00    1.5
2023/04/14 12:26:41.000   61.448658893   23.855528694   164.7430   2  18   0.0098   0.0095   0.0202  -0.0038  -0.0030  -0.0058   0.00    1.3
2023/04/14 12:26:42.000   61.448652418   23.855510313   164.7076   2  19   0.0097   0.0100   0.0202  -0.0037  -0.0028  -0.0058   0.00    1.0
2023/04/14 12:26:43.000   61.448645936   23.855492867   164.7775   2  19   0.0098   0.0098   0.0201  -0.0039  -0.0028  -0.0058   0.00    1.3
2023/04/14 12:26:44.000   61.448639059   23.855475922   164.8264   2  19   0.0098   0.0100   0.0201  -0.0038  -0.0027  -0.0057   0.00    1.7
2023/04/14 12:26:45.000   61.448632012   23.855458740   164.8543   2  19   0.0099   0.0101   0.0201  -0.0037  -0.0028  -0.0059   0.00    1.1
2023/04/14 12:26:46.000   61.448626288   23.855442351   164.9042   2  19   0.0099   0.0101   0.0201  -0.0041  -0.0022  -0.0058   0.00    1.2
2023/04/14 12:26:47.000   61.448621970   23.855425869   164.9036   2  18   0.0096   0.0098   0.0200  -0.0039  -0.0027  -0.0056   0.00    2.3
2023/04/14 12:26:48.000   61.448618475   23.855406891   164.8760   2  19   0.0098   0.0100   0.0201  -0.0040  -0.0025  -0.0058   0.00    2.5
2023/04/14 12:26:49.000   61.448612453   23.855390031   164.9028   2  19   0.0097   0.0099   0.0200  -0.0037  -0.0026  -0.0056   0.00    2.7
2023/04/14 12:26:50.000   61.448606464   23.855374666   164.9446   2  19   0.0098   0.0101   0.0200  -0.0035  -0.0026  -0.0057   0.00    2.9
2023/04/14 12:26:51.000   61.448599841   23.855360313   164.9446   2  19   0.0097   0.0101   0.0200  -0.0035  -0.0028  -0.0056   0.00    1.1
2023/04/14 12:26:52.000   61.448593680   23.855345095   164.9635   2  18   0.0099   0.0099   0.0200  -0.0043  -0.0020  -0.0057   0.00    3.0
2023/04/14 12:26:53.000   61.448587318   23.855329204   165.0393   2  18   0.0098   0.0103   0.0200  -0.0037  -0.0024  -0.0057   0.00    3.0
2023/04/14 12:26:54.000   61.448580159   23.855318570   164.9983   1  18   0.0043   0.0028   0.0088  -0.0018  -0.0010   0.0033   0.00    3.1
2023/04/14 12:26:55.000   61.448574451   23.855300983   165.0290   1  18   0.0034   0.0029   0.0090  -0.0023   0.0013   0.0040   0.00    3.2
2023/04/14 12:26:56.000   61.448568494   23.855283196   165.0266   1  17   0.0027   0.0016   0.0066  -0.0014  -0.0005   0.0030   0.00    5.0
2023/04/14 12:26:57.000   61.448562674   23.855266263   165.0226   1  18   0.0018   0.0007   0.0063   0.0009  -0.0015   0.0031   0.00    5.2
2023/04/14 12:26:58.000   61.448557888   23.855249935   165.0642   1  18   0.0028   0.0021   0.0064  -0.0012   0.0001   0.0025   0.00    5.4
2023/04/14 12:26:59.000   61.448551108   23.855232606   165.0896   1  18   0.0030   0.0019   0.0064  -0.0016  -0.0005   0.0024   0.00    5.6
2023/04/14 12:27:00.000   61.448544101   23.855217529   165.0796   1  18   0.0026   0.0016   0.0065   0.0002  -0.0014   0.0023   0.00    5.8
2023/04/14 12:27:01.000   61.448537279   23.855197709   165.1373   2  18   0.0099   0.0096   0.0200  -0.0039  -0.0025  -0.0057   0.00    1.1
2023/04/14 12:27:02.000   61.448529917   23.855180512   165.1397   2  18   0.0097   0.0099   0.0200  -0.0038  -0.0022  -0.0056   0.00    1.2
2023/04/14 12:27:03.000   61.448523859   23.855165109   165.1976   2  18   0.0098   0.0098   0.0199  -0.0037  -0.0023  -0.0055   0.00    1.1
2023/04/14 12:27:04.000   61.448517753   23.855148600   165.2383   2  18   0.0097   0.0098   0.0199  -0.0043  -0.0015  -0.0055   0.00    1.2
2023/04/14 12:27:05.000   61.448512891   23.855134068   165.1982   1  18   0.0032   0.0011   0.0064  -0.0020   0.0007   0.0026   0.00    6.8
2023/04/14 12:27:06.000   61.448506829   23.855115406   165.1935   1  18   0.0030   0.0019   0.0064  -0.0013  -0.0010   0.0022   0.00    6.9
2023/04/14 12:27:07.000   61.448501185   23.855097640   165.2069   1  18   0.0026   0.0020   0.0064  -0.0017  -0.0006   0.0025   0.00    7.2
2023/04/14 12:27:08.000   61.448494553   23.855080500   165.2348   1  18   0.0036   0.0032   0.0089  -0.0017  -0.0014   0.0032   0.00    7.4
2023/04/14 12:27:09.000   61.448487083   23.855058598   165.3051   2  18   0.0097   0.0097   0.0199  -0.0033  -0.0026  -0.0056   0.00    1.1
2023/04/14 12:27:10.000   61.448479537   23.855043505   165.3464   2  18   0.0099   0.0100   0.0198  -0.0038  -0.0022  -0.0059   0.00    1.3
2023/04/14 12:27:11.000   61.448471147   23.855029524   165.3613   2  18   0.0098   0.0099   0.0197  -0.0037  -0.0022  -0.0057   0.00    1.4
2023/04/14 12:27:12.000   61.448464561   23.855013319   165.3779   2  18   0.0097   0.0100   0.0198  -0.0037  -0.0019  -0.0057   0.00    1.5
2023/04/14 12:27:13.000   61.448457284   23.854995687   165.3485   2  18   0.0098   0.0098   0.0197  -0.0038  -0.0019  -0.0058   0.00    1.6
2023/04/14 12:27:14.000   61.448450408   23.854978189   165.4013   2  18   0.0097   0.0099   0.0197  -0.0036  -0.0020  -0.0057   0.00    1.7
2023/04/14 12:27:15.000   61.448443917   23.854965418   165.4561   1  17   0.0043   0.0024   0.0093  -0.0021  -0.0019   0.0037   0.00    9.0
2023/04/14 12:27:16.000   61.448437013   23.854948021   165.4832   1  17   0.0041   0.0027   0.0094   0.0014  -0.0018   0.0040   0.00    9.2
2023/04/14 12:27:17.000   61.448430233   23.854929503   165.4702   1  17   0.0037   0.0030   0.0094   0.0006  -0.0019   0.0038   0.00    9.4
2023/04/14 12:27:18.000   61.448424828   23.854910971   165.4986   1  18   0.0036   0.0020   0.0094   0.0015  -0.0021   0.0038   0.00    9.6
2023/04/14 12:27:19.000   61.448419362   23.854892827   165.4732   1  18   0.0041   0.0040   0.0095  -0.0014  -0.0016   0.0037   0.00    9.9
2023/04/14 12:27:20.000   61.448414655   23.854875074   165.5206   1  18   0.0035   0.0027   0.0093  -0.0020  -0.0018   0.0039   0.00   10.1
2023/04/14 12:27:21.000   61.448408298   23.854854687   165.4530   1  18   0.0040   0.0031   0.0091  -0.0008  -0.0011   0.0037   0.00   10.3
2023/04/14 12:27:22.000   61.448401082   23.854836631   165.5071   1  18   0.0039   0.0028   0.0090   0.0009  -0.0014   0.0034   0.00   10.4
2023/04/14 12:27:23.000   61.448391662   23.854816920   165.6635   2  18   0.0098   0.0100   0.0197  -0.0038  -0.0013  -0.0057   0.00    1.1
2023/04/14 12:27:24.000   61.448383197   23.854801133   165.6972   2  18   0.0098   0.0100   0.0196  -0.0035  -0.0018  -0.0058   0.00    1.2
2023/04/14 12:27:25.000   61.448377236   23.854785927   165.6085   1  17   0.0036   0.0019   0.0097  -0.0026   0.0020   0.0043   0.00    5.1
2023/04/14 12:27:26.000   61.448370756   23.854767279   165.6055   1  17   0.0042   0.0020   0.0098  -0.0017   0.0008   0.0040   0.00    4.9
2023/04/14 12:27:27.000   61.448363747   23.854751065   165.6198   1  17   0.0045   0.0038   0.0098  -0.0023   0.0015   0.0038   0.00    4.7
2023/04/14 12:27:28.000   61.448356066   23.854735080   165.6148   1  18   0.0034   0.0031   0.0094   0.0017  -0.0012   0.0038   0.00    4.6
2023/04/14 12:27:29.000   61.448348001   23.854719173   165.6494   1  18   0.0036   0.0035   0.0093   0.0013  -0.0006   0.0036   0.00    4.5
2023/04/14 12:27:30.000   61.448339892   23.854704452   165.7221   1  19   0.0040   0.0023   0.0097  -0.0014   0.0010   0.0040   0.00    4.3
2023/04/14 12:27:31.000   61.448330858   23.854684529   165.8514   2  18   0.0097   0.0098   0.0197  -0.0038  -0.0016  -0.0057   0.00    1.1
2023/04/14 12:27:32.000   61.448322253   23.854669950   165.8642   2  18   0.0098   0.0098   0.0196  -0.0039  -0.0014  -0.0059   0.00    1.1
2023/04/14 12:27:33.000   61.448313625   23.854653049   165.8718   2  18   0.0099   0.0098   0.0196  -0.0033  -0.0020  -0.0060   0.00    1.1
2023/04/14 12:27:34.000   61.448304971   23.854637206   165.8868   2  18   0.0096   0.0098   0.0195  -0.0038  -0.0009  -0.0057   0.00    1.2
2023/04/14 12:27:35.000   61.448297411   23.854625605   165.8113   1  17   0.0029   0.0019   0.0097   0.0023  -0.0006   0.0044   0.00    3.6
2023/04/14 12:27:36.000   61.448288630   23.854610289   165.7709   1  17   0.0041   0.0035   0.0098  -0.0020   0.0014   0.0039   0.00    3.5
2023/04/14 12:27:37.000   61.448278807   23.854597350   165.7949   1  17   0.0040   0.0017   0.0098   0.0015  -0.0011   0.0041   0.00    3.4
2023/04/14 12:27:38.000   61.448268951   23.854585348   165.7837   1  18   0.0038   0.0031   0.0094   0.0013  -0.0013   0.0033   0.00    3.2
2023/04/14 12:27:39.000   61.448259300   23.854573229   165.8066   1  18   0.0044   0.0036   0.0091   0.0021  -0.0020   0.0033   0.00    3.1
2023/04/14 12:27:40.000   61.448249082   23.854565183   165.8276   1  18   0.0042   0.0023   0.0093  -0.0021  -0.0011   0.0033   0.00    3.1
2023/04/14 12:27:41.000   61.448238992   23.854556324   165.8890   1  19   0.0038   0.0042   0.0092   0.0021  -0.0017   0.0033   0.00    3.1
2023/04/14 12:27:42.000   61.448229274   23.854546817   165.8772   1  19   0.0035   0.0025   0.0090  -0.0009  -0.0010   0.0033   0.00    3.3
2023/04/14 12:27:43.000   61.448218980   23.854535801   166.0320   2  18   0.0096   0.0098   0.0195  -0.0032  -0.0018  -0.0057   0.00    1.2
2023/04/14 12:27:44.000   61.448207503   23.854530612   166.0280   2  18   0.0097   0.0098   0.0195  -0.0038   0.0004  -0.0060   0.00    1.2
2023/04/14 12:27:45.000   61.448196375   23.854529861   166.0524   2  19   0.0098   0.0098   0.0194  -0.0035  -0.0014  -0.0061   0.00    1.3
2023/04/14 12:27:46.000   61.448187518   23.854527891   166.1056   2  19   0.0096   0.0098   0.0193  -0.0038   0.0011  -0.0060   0.00    1.4
2023/04/14 12:27:47.000   61.448180924   23.854529888   165.9953   1  17   0.0040   0.0033   0.0098  -0.0025   0.0019   0.0041   0.00    3.8
2023/04/14 12:27:48.000   61.448175866   23.854524630   165.9147   1  18   0.0039   0.0029   0.0096  -0.0017   0.0014   0.0040   0.00    3.9
2023/04/14 12:27:49.000   61.448168785   23.854528152   165.8919   1  18   0.0037   0.0045   0.0096  -0.0023   0.0020   0.0040   0.00    3.9
2023/04/14 12:27:50.000   61.448160236   23.854531649   165.9180   1  18   0.0037   0.0015   0.0096   0.0009   0.0003   0.0041   0.00    4.0
2023/04/14 12:27:51.000   61.448150184   23.854530168   166.0751   2  18   0.0097   0.0099   0.0195  -0.0031  -0.0016  -0.0060   0.00    1.0
2023/04/14 12:27:52.000   61.448143078   23.854536112   166.1045   2  18   0.0097   0.0099   0.0195  -0.0037   0.0009  -0.0061   0.00    1.1
2023/04/14 12:27:53.000   61.448138697   23.854539266   166.0964   2  18   0.0097   0.0098   0.0194  -0.0034  -0.0011  -0.0059   0.00    1.1
2023/04/14 12:27:54.000   61.448139278   23.854539315   165.9631   1  17   0.0036   0.0041   0.0098  -0.0024   0.0018   0.0040   0.00    4.4
2023/04/14 12:27:55.000   61.448141774   23.854534072   165.9894   1  17   0.0037   0.0011   0.0098   0.0021  -0.0011   0.0040   0.00    4.9
2023/04/14 12:27:56.000   61.448142746   23.854533538   166.0180   1  18   0.0038   0.0035   0.0096  -0.0030   0.0024   0.0037   0.00    4.8
2023/04/14 12:27:57.000   61.448142475   23.854533449   166.0211   1  18   0.0041   0.0030   0.0097  -0.0021   0.0011   0.0037   0.00    4.7
2023/04/14 12:27:58.000   61.448142601   23.854533582   166.0256   1  18   0.0042   0.0030   0.0099  -0.0028   0.0019   0.0038   0.00    4.7
2023/04/14 12:27:59.000   61.448144409   23.854531952   165.9967   1  17   0.0042   0.0044   0.0098   0.0009   0.0012   0.0041   0.00    4.6
2023/04/14 12:28:00.000   61.448144663   23.854528895   166.0111   1  17   0.0038   0.0042   0.0098  -0.0027   0.0020   0.0040   0.00    4.6
2023/04/14 12:28:01.000   61.448144942   23.854527623   165.9911   1  17   0.0036   0.0036   0.0098  -0.0018   0.0018   0.0040   0.00    4.5
2023/04/14 12:28:02.000   61.448144775   23.854527944   165.9984   1  17   0.0040   0.0024   0.0098  -0.0025   0.0014   0.0037   0.00    4.5
2023/04/14 12:28:03.000   61.448144794   23.854528284   166.0089   1  18   0.0036   0.0037   0.0097  -0.0006   0.0008   0.0043   0.00    4.4
2023/04/14 12:28:04.000   61.448144475   23.854528392   165.9940   1  17   0.0042   0.0028   0.0098  -0.0017   0.0016   0.0039   0.00    4.4
2023/04/14 12:28:05.000   61.448145759   23.854526972   165.9697   1  17   0.0031   0.0026   0.0070  -0.0018   0.0015   0.0027   0.00    3.1
2023/04/14 12:28:06.000   61.448146351   23.854529479   165.9929   1  18   0.0025   0.0024   0.0069  -0.0003   0.0011   0.0028   0.00    3.3
2023/04/14 12:28:07.000   61.448146444   23.854530761   165.9938   1  18   0.0028   0.0022   0.0068  -0.0014   0.0012   0.0027   0.00    3.5
2023/04/14 12:28:08.000   61.448146598   23.854530288   165.9826   1  18   0.0028   0.0018   0.0068   0.0010   0.0004   0.0028   0.00    3.7
2023/04/14 12:28:09.000   61.448146023   23.854524887   166.0119   2  19   0.0096   0.0098   0.0192  -0.0037   0.0014  -0.0061   0.00    1.0
2023/04/14 12:28:10.000   61.448145959   23.854524913   165.9930   2  19   0.0098   0.0098   0.0191  -0.0034   0.0014  -0.0064   0.00    1.0
2023/04/14 12:28:11.000   61.448146157   23.854525576   166.0764   2  18   0.0097   0.0100   0.0192  -0.0038   0.0020  -0.0063   0.00    1.1
2023/04/14 12:28:12.000   61.448146884   23.854526442   166.4061   2  19   0.0097   0.0098   0.0190  -0.0039   0.0022  -0.0065   0.00    1.1
2023/04/14 12:28:13.000   61.448145930   23.854526053   166.0787   2  18   0.0097   0.0099   0.0191  -0.0038   0.0021  -0.0064   0.00    1.1
2023/04/14 12:28:14.000   61.448146052   23.854525710   166.0769   2  19   0.0097   0.0099   0.0191  -0.0032  -0.0009  -0.0063   0.00    1.1
2023/04/14 12:28:15.000   61.448146226   23.854525692   166.0705   2  19   0.0097   0.0100   0.0191  -0.0038   0.0023  -0.0064   0.00    1.2
2023/04/14 12:28:16.000   61.448146157   23.854525561   166.0735   2  19   0.0097   0.0096   0.0190  -0.0034   0.0009  -0.0063   0.00    1.2
2023/04/14 12:28:17.000   61.448146017   23.854524931   166.0715   2  19   0.0096   0.0099   0.0189  -0.0034   0.0015  -0.0067   0.00    1.2
2023/04/14 12:28:18.000   61.448146034   23.854524797   166.0644   2  19   0.0096   0.0098   0.0189  -0.0038   0.0018  -0.0065   0.00    1.2
2023/04/14 12:28:19.000   61.448146283   23.854525048   166.0634   2  19   0.0097   0.0098   0.0190  -0.0034   0.0010  -0.0065   0.00    1.0
2023/04/14 12:28:20.000   61.448146287   23.854525605   166.0603   2  19   0.0097   0.0096   0.0189  -0.0037   0.0021  -0.0065   0.00    1.1
2023/04/14 12:28:21.000   61.448146317   23.854525462   166.0654   2  19   0.0097   0.0099   0.0189  -0.0037   0.0016  -0.0065   0.00    1.1
2023/04/14 12:28:22.000   61.448145871   23.854526150   166.0694   2  18   0.0097   0.0100   0.0190  -0.0036   0.0020  -0.0064   0.00    1.3
2023/04/14 12:28:23.000   61.448146035   23.854525640   166.0650   2  18   0.0097   0.0098   0.0190  -0.0033   0.0014  -0.0064   0.00    1.4
2023/04/14 12:28:24.000   61.448146194   23.854525112   166.0578   2  19   0.0098   0.0099   0.0190  -0.0037   0.0021  -0.0066   0.00    1.4
2023/04/14 12:28:25.000   61.448145946   23.854525126   166.0628   2  18   0.0097   0.0097   0.0189  -0.0036   0.0019  -0.0064   0.00    1.4
2023/04/14 12:28:26.000   61.448145864   23.854524973   166.0634   2  19   0.0097   0.0099   0.0189  -0.0032   0.0012  -0.0064   0.00    1.4
2023/04/14 12:28:27.000   61.448145617   23.854525402   166.0617   2  19   0.0096   0.0097   0.0189  -0.0036   0.0021  -0.0065   0.00    1.4
2023/04/14 12:28:28.000   61.448145870   23.854525233   166.0604   2  19   0.0097   0.0096   0.0189  -0.0031   0.0005  -0.0064   0.00    1.4
2023/04/14 12:28:29.000   61.448146525   23.854529146   165.9862   1  18   0.0029   0.0027   0.0066  -0.0005  -0.0008   0.0025   0.00    6.8
2023/04/14 12:28:30.000   61.448146757   23.854529451   165.9831   1  19   0.0026   0.0017   0.0066  -0.0008  -0.0009   0.0027   0.00    6.9
2023/04/14 12:28:31.000   61.448146594   23.854529681   165.9798   1  18   0.0030   0.0023   0.0069  -0.0014   0.0011   0.0027   0.00    6.9
2023/04/14 12:28:32.000   61.448146273   23.854529494   165.9850   1  18   0.0038   0.0028   0.0096  -0.0015   0.0011   0.0041   0.00    7.0
2023/04/14 12:28:33.000   61.448145805   23.854524931   166.0620   2  18   0.0097   0.0098   0.0189  -0.0037   0.0017  -0.0065   0.00    1.0
2023/04/14 12:28:34.000   61.448146352   23.854529790   165.9889   1  18   0.0039   0.0030   0.0098   0.0017  -0.0014   0.0040   0.00    7.2
2023/04/14 12:28:35.000   61.448146385   23.854530408   165.9914   1  18   0.0042   0.0029   0.0098  -0.0022   0.0013   0.0039   0.00    7.2
2023/04/14 12:28:36.000   61.448146380   23.854530252   165.9926   1  18   0.0039   0.0025   0.0096  -0.0028   0.0014   0.0039   0.00    7.3
2023/04/14 12:28:37.000   61.448145676   23.854525871   166.0668   2  18   0.0097   0.0098   0.0189  -0.0037   0.0024  -0.0065   0.00    1.0
2023/04/14 12:28:38.000   61.448145577   23.854526403   166.0597   2  18   0.0096   0.0097   0.0188  -0.0035   0.0022  -0.0066   0.00    1.1
2023/04/14 12:28:39.000   61.448145503   23.854526424   166.0622   2  18   0.0097   0.0098   0.0188  -0.0035   0.0021  -0.0066   0.00    1.1
2023/04/14 12:28:40.000   61.448145595   23.854526067   166.0556   2  18   0.0097   0.0097   0.0187  -0.0037   0.0021  -0.0067   0.00    1.1
2023/04/14 12:28:41.000   61.448145911   23.854525427   166.0537   2  18   0.0096   0.0100   0.0188  -0.0034   0.0019  -0.0066   0.00    1.2
2023/04/14 12:28:42.000   61.448146026   23.854524940   166.0571   2  18   0.0097   0.0099   0.0188  -0.0035   0.0021  -0.0067   0.00    1.2
2023/04/14 12:28:43.000   61.448146029   23.854525254   166.0507   2  18   0.0097   0.0097   0.0187  -0.0036   0.0022  -0.0065   0.00    1.2
2023/04/14 12:28:44.000   61.448146036   23.854525644   166.0474   2  18   0.0097   0.0098   0.0187  -0.0039   0.0027  -0.0068   0.00    1.3
2023/04/14 12:28:45.000   61.448145825   23.854525616   166.0506   2  18   0.0096   0.0098   0.0187  -0.0034   0.0020  -0.0066   0.00    1.3
2023/04/14 12:28:46.000   61.448146153   23.854525654   166.0503   2  18   0.0096   0.0097   0.0186  -0.0034   0.0020  -0.0068   0.00    1.4
2023/04/14 12:28:47.000   61.448146383   23.854525543   166.0458   2  18   0.0096   0.0097   0.0186  -0.0033   0.0016  -0.0066   0.00    1.4
2023/04/14 12:28:48.000   61.448146442   23.854525848   166.0448   2  18   0.0096   0.0096   0.0186  -0.0037   0.0020  -0.0068   0.00    1.4
2023/04/14 12:28:49.000   61.448146143   23.854525190   166.0410   2  18   0.0097   0.0099   0.0186  -0.0038   0.0027  -0.0068   0.00    1.4
2023/04/14 12:28:50.000   61.448145333   23.854526235   166.0558   2  18   0.0096   0.0096   0.0186  -0.0034   0.0021  -0.0068   0.00    1.5
2023/04/14 12:28:51.000   61.448146062   23.854526540   166.0412   2  18   0.0097   0.0097   0.0186  -0.0033   0.0021  -0.0068   0.00    1.5
2023/04/14 12:28:52.000   61.448146358   23.854525615   166.0410   2  18   0.0098   0.0097   0.0187  -0.0035   0.0019  -0.0069   0.00    1.5
2023/04/14 12:28:53.000   61.448145585   23.854527063   165.9781   1  18   0.0042   0.0029   0.0098   0.0013  -0.0002   0.0041   0.00    8.3
2023/04/14 12:28:54.000   61.448145274   23.854527489   166.0032   1  18   0.0045   0.0043   0.0097  -0.0028   0.0016   0.0035   0.00    8.4
2023/04/14 12:28:55.000   61.448145415   23.854526799   165.9866   1  19   0.0040   0.0040   0.0096   0.0021  -0.0011   0.0036   0.00    8.4
2023/04/14 12:28:56.000   61.448145557   23.854517756   165.8940   1  17   0.0043   0.0030   0.0098  -0.0016   0.0011   0.0039   0.00    8.5
2023/04/14 12:28:57.000   61.448143131   23.854498686   165.8956   1  17   0.0032   0.0028   0.0097   0.0011  -0.0011   0.0043   0.00    8.6
2023/04/14 12:28:58.000   61.448140883   23.854471086   165.9903   2  19   0.0097   0.0099   0.0186  -0.0037   0.0021  -0.0068   0.00    1.5
2023/04/14 12:28:59.000   61.448138598   23.854450322   166.0398   2  19   0.0097   0.0097   0.0186  -0.0033   0.0016  -0.0066   0.00    2.0
2023/04/14 12:29:00.000   61.448136358   23.854428744   166.1026   2  19   0.0098   0.0099   0.0186  -0.0035   0.0022  -0.0067   0.00    2.5
2023/04/14 12:29:01.000   61.448134306   23.854408876   166.0666   1  18   0.0044   0.0029   0.0098   0.0009   0.0011   0.0039   0.00    9.0
2023/04/14 12:29:02.000   61.448131427   23.854384602   166.0976   1  18   0.0040   0.0038   0.0098  -0.0015   0.0008   0.0038   0.00    9.1
2023/04/14 12:29:03.000   61.448127630   23.854361123   166.1073   1  18   0.0040   0.0035   0.0097   0.0005   0.0014   0.0037   0.00    9.2
2023/04/14 12:29:04.000   61.448123010   23.854336497   166.1273   1  18   0.0037   0.0025   0.0097   0.0022   0.0006   0.0041   0.00    9.2
2023/04/14 12:29:05.000   61.448118503   23.854312102   166.1360   1  19   0.0041   0.0023   0.0107  -0.0016   0.0012   0.0049   0.00    3.2
2023/04/14 12:29:06.000   61.448113543   23.854290261   166.0788   1  19   0.0042   0.0033   0.0105   0.0025  -0.0011   0.0050   0.00    3.7
2023/04/14 12:29:07.000   61.448108712   23.854265187   166.0308   1  18   0.0045   0.0028   0.0107   0.0014  -0.0020   0.0046   0.00    4.5
2023/04/14 12:29:08.000   61.448105374   23.854241294   166.0179   1  19   0.0046   0.0039   0.0110  -0.0013  -0.0015   0.0047   0.00    5.0
2023/04/14 12:29:09.000   61.448100829   23.854211537   166.0112   2  17   0.0100   0.0099   0.0194  -0.0036   0.0015  -0.0066   0.00    1.8
2023/04/14 12:29:10.000   61.448097652   23.854186169   165.9089   2  18   0.0100   0.0099   0.0195  -0.0034   0.0013  -0.0066   0.00    1.0
2023/04/14 12:29:11.000   61.448094171   23.854159237   165.9187   2  18   0.0101   0.0100   0.0196  -0.0034   0.0008  -0.0068   0.00    1.1
2023/04/14 12:29:12.000   61.448092310   23.854135743   165.9153   2  16   0.0102   0.0100   0.0196  -0.0034  -0.0005  -0.0065   0.00    1.0
2023/04/14 12:29:13.000   61.448089162   23.854107277   166.0663   2  15   0.0107   0.0101   0.0208  -0.0035  -0.0015  -0.0045   0.00    1.1
2023/04/14 12:29:14.000   61.448083454   23.854087175   165.4963   2  15   0.0128   0.0099   0.0271  -0.0044  -0.0039   0.0104   0.00    1.1
2023/04/14 12:29:15.000   61.448079882   23.854063004   165.6933   2  16   0.0118   0.0099   0.0241  -0.0040  -0.0025   0.0069   0.00    1.4
2023/04/14 12:29:16.000   61.448075727   23.854042642   165.0745   2  16   0.0124   0.0100   0.0262  -0.0044  -0.0028   0.0090   0.00    1.4
2023/04/14 12:29:18.000   61.448068537   23.853996363   165.5061   2  16   0.0140   0.0100   0.0290  -0.0045  -0.0042   0.0128   0.00    1.1
2023/04/14 12:29:19.000   61.448066654   23.853974247   165.9597   2  15   0.0125   0.0098   0.0253  -0.0037   0.0013   0.0088   0.00    1.0
2023/04/14 12:29:20.000   61.448062753   23.853952542   165.8128   2  14   0.0127   0.0098   0.0261  -0.0039   0.0019   0.0098   0.00    1.0
2023/04/14 12:29:21.000   61.448059195   23.853930041   166.2094   2  15   0.0137   0.0099   0.0284  -0.0040   0.0018   0.0122   0.00    1.0
2023/04/14 12:29:22.000   61.448054006   23.853908604   165.9366   2  15   0.0138   0.0098   0.0286  -0.0035   0.0030   0.0125   0.00    1.1
2023/04/14 12:29:23.000   61.448050172   23.853886473   166.1235   2  17   0.0138   0.0098   0.0283  -0.0038   0.0029   0.0123   0.00    1.1
2023/04/14 12:29:24.000   61.448050334   23.853864966   167.0519   2  16   0.0126   0.0099   0.0248  -0.0044   0.0005   0.0084   0.00    1.1
2023/04/14 12:29:25.000   61.448040635   23.853844130   165.7358   2  16   0.0150   0.0097   0.0299  -0.0043  -0.0016   0.0145   0.00    1.2
2023/04/14 12:29:26.000   61.448040353   23.853823073   166.6998   2  15   0.0150   0.0097   0.0303  -0.0043  -0.0011   0.0147   0.00    1.1
2023/04/14 12:29:27.000   61.448034921   23.853802248   166.4749   2  15   0.0137   0.0098   0.0291  -0.0040   0.0032   0.0127   0.00    1.0
2023/04/14 12:29:28.000   61.448030361   23.853780302   166.1716   2  16   0.0111   0.0097   0.0237  -0.0038   0.0032   0.0051   0.00    1.4
2023/04/14 12:29:29.000   61.448029491   23.853759899   167.0743   2  18   0.0106   0.0096   0.0220  -0.0036   0.0032  -0.0022   0.00    1.2
2023/04/14 12:29:30.000   61.448023978   23.853738613   166.7747   2  17   0.0110   0.0094   0.0231  -0.0038   0.0032   0.0033   0.00    1.2
2023/04/14 12:29:31.000   61.448020201   23.853715725   166.7931   2  17   0.0107   0.0096   0.0232  -0.0038   0.0038   0.0026   0.00    1.0
2023/04/14 12:29:32.000   61.448016470   23.853695341   166.7653   2  18   0.0105   0.0098   0.0216  -0.0039   0.0032  -0.0035   0.00    1.1
2023/04/14 12:29:33.000   61.448013654   23.853672677   166.9267   2  17   0.0106   0.0096   0.0223  -0.0035   0.0032   0.0013   0.00    1.0
2023/04/14 12:29:34.000   61.448022697   23.853649094   170.5824   2  16   0.0103   0.0097   0.0215  -0.0038   0.0032  -0.0033   0.00    1.0
2023/04/14 12:29:35.000   61.448011932   23.853631114   168.1241   1  18   0.0052   0.0029   0.0118  -0.0004  -0.0010   0.0053   0.00    5.3
2023/04/14 12:29:36.000   61.448000651   23.853612363   166.2041   1  18   0.0059   0.0046   0.0143  -0.0031   0.0015   0.0074   0.00    5.6
2023/04/14 12:29:37.000   61.448009966   23.853587013   169.9918   2  18   0.0105   0.0098   0.0219  -0.0038   0.0034  -0.0020   0.00    1.0
2023/04/14 12:29:38.000   61.447993961   23.853568961   166.1914   1  18   0.0058   0.0042   0.0128  -0.0017  -0.0019   0.0064   0.00    4.5
2023/04/14 12:29:42.000   61.447980274   23.853482942   166.3455   1  19   0.0046   0.0031   0.0107  -0.0021  -0.0004   0.0047   0.00    9.5
2023/04/14 12:29:43.000   61.447986820   23.853456440   169.7586   2  20   0.0102   0.0098   0.0209  -0.0041   0.0035  -0.0043   0.00    1.0
2023/04/14 12:29:44.000   61.447982187   23.853436358   169.8378   2  20   0.0100   0.0095   0.0209  -0.0033   0.0029  -0.0042   0.00    1.0
2023/04/14 12:29:45.000   61.447977688   23.853415444   169.9577   2  21   0.0102   0.0094   0.0210  -0.0033   0.0034  -0.0041   0.00    1.0
2023/04/14 12:29:46.000   61.447962802   23.853396643   166.4060   1  19   0.0044   0.0031   0.0107   0.0011   0.0004   0.0050   0.00    8.6
2023/04/14 12:29:47.000   61.447970796   23.853371971   169.9070   2  20   0.0101   0.0097   0.0210  -0.0030   0.0035  -0.0040   0.00    1.0
2023/04/14 12:29:48.000   61.447965833   23.853350843   169.9615   2  20   0.0101   0.0096   0.0211  -0.0035   0.0034  -0.0038   0.00    1.0
2023/04/14 12:29:49.000   61.447950442   23.853333611   166.4722   1  18   0.0043   0.0025   0.0107  -0.0009  -0.0009   0.0049   0.00    8.0
2023/04/14 12:29:50.000   61.447946826   23.853313513   166.5306   1  19   0.0041   0.0037   0.0102   0.0008  -0.0003   0.0048   0.00    7.8
2023/04/14 12:29:51.000   61.447942677   23.853292121   166.5521   1  19   0.0040   0.0041   0.0099  -0.0016   0.0010   0.0043   0.00    7.6
2023/04/14 12:29:52.000   61.447938707   23.853271488   166.5778   1  19   0.0043   0.0043   0.0101  -0.0020   0.0011   0.0044   0.00    7.5
2023/04/14 12:29:54.000   61.447930025   23.853229256   166.6065   1  19   0.0044   0.0034   0.0107  -0.0019   0.0017   0.0049   0.00    7.3
2023/04/14 12:29:55.000   61.447926692   23.853207221   166.6510   1  19   0.0035   0.0028   0.0093   0.0005  -0.0015   0.0043   0.00    3.4
2023/04/14 12:29:56.000   61.447922532   23.853184608   166.6993   1  20   0.0043   0.0034   0.0094  -0.0007  -0.0017   0.0037   0.00    3.2
2023/04/14 12:29:57.000   61.447919423   23.853162606   166.7388   1  20   0.0040   0.0013   0.0094   0.0013  -0.0019   0.0039   0.00    3.1
2023/04/14 12:29:58.000   61.447915632   23.853140233   166.7823   1  19   0.0036   0.0034   0.0093  -0.0010  -0.0017   0.0044   0.00    3.0
2023/04/14 12:29:59.000   61.447922911   23.853114875   170.1658   2  20   0.0102   0.0096   0.0208  -0.0033   0.0033  -0.0042   0.00    1.0
2023/04/14 12:30:00.000   61.447917956   23.853093337   170.1755   2  20   0.0101   0.0096   0.0208  -0.0036   0.0034  -0.0042   0.00    1.0
2023/04/14 12:30:01.000   61.447913053   23.853072626   170.1801   2  20   0.0101   0.0097   0.0208  -0.0038   0.0036  -0.0041   0.00    1.0
2023/04/14 12:30:02.000   61.447909586   23.853047488   170.4926   2  21   0.0102   0.0097   0.0208  -0.0035   0.0034  -0.0042   0.00    1.0
2023/04/14 12:30:03.000   61.447903581   23.853026714   170.2097   2  21   0.0102   0.0097   0.0208  -0.0035   0.0034  -0.0041   0.00    1.0
2023/04/14 12:30:04.000   61.447897693   23.853005263   170.2045   2  20   0.0102   0.0097   0.0208  -0.0037   0.0035  -0.0043   0.00    1.0
2023/04/14 12:30:05.000   61.447891648   23.852983783   170.2716   2  20   0.0101   0.0098   0.0208  -0.0035   0.0035  -0.0042   0.00    1.0
2023/04/14 12:30:06.000   61.447885379   23.852963465   170.2033   2  21   0.0101   0.0094   0.0208  -0.0034   0.0035  -0.0040   0.00    1.0
2023/04/14 12:30:07.000   61.447879081   23.852941259   170.2985   2  19   0.0102   0.0096   0.0207  -0.0035   0.0034  -0.0043   0.00    1.0
2023/04/14 12:30:08.000   61.447873053   23.852920320   170.3401   2  21   0.0102   0.0097   0.0207  -0.0034   0.0035  -0.0043   0.00    1.0
